{
"type": "FeatureCollection",
"name": "places-v2-part",
"crs": { "type": "name", "properties": { "name": "urn:ogc:def:crs:OGC:1.3:CRS84" } },
"features": [
{ "type": "Feature", "properties": { "fid": 7, "geonamesid": null, "name": "Naga Chawkah", "aka": null, "position": true, "mf_name": "Naga el Ghawanem" }, "geometry": { "type": "Point", "coordinates": [ 31.621097415672619, 26.566089605973975 ] } },
{ "type": "Feature", "properties": { "fid": 13, "geonamesid": null, "name": "Village Rume", "aka": null, "position": null, "mf_name": null }, "geometry": { "type": "Point", "coordinates": [ 32.02388597708007, 26.259817630697498 ] } },
{ "type": "Feature", "properties": { "fid": 14, "geonamesid": null, "name": "El  Nagàziéh", "aka": null, "position": null, "mf_name": null }, "geometry": { "type": "Point", "coordinates": [ 31.770378278192371, 26.446855795311087 ] } },
{ "type": "Feature", "properties": { "fid": 18, "geonamesid": 361661, "name": "El Akmìn", "aka": "Chemmis, Panopolis", "position": true, "mf_name": "Akhmin" }, "geometry": { "type": "Point", "coordinates": [ 31.743411769743812, 26.562250171522837 ] } },
{ "type": "Feature", "properties": { "fid": 19, "geonamesid": null, "name": "Kafr", "aka": null, "position": null, "mf_name": null }, "geometry": { "type": "Point", "coordinates": [ 32.791047854753721, 25.989401316071614 ] } },
{ "type": "Feature", "properties": { "fid": 21, "geonamesid": null, "name": "Déroùf", "aka": null, "position": null, "mf_name": null }, "geometry": { "type": "Point", "coordinates": [ 31.701142403372518, 26.47645647600271 ] } },
{ "type": "Feature", "properties": { "fid": 25, "geonamesid": null, "name": "El Masarah", "aka": null, "position": null, "mf_name": null }, "geometry": { "type": "Point", "coordinates": [ 32.049317586939573, 26.254646869574678 ] } },
{ "type": "Feature", "properties": { "fid": 26, "geonamesid": null, "name": "El Zéràbì", "aka": null, "position": true, "mf_name": "Kafr el Zarabi" }, "geometry": { "type": "Point", "coordinates": [ 31.758058278644707, 26.594484491264829 ] } },
{ "type": "Feature", "properties": { "fid": 27, "geonamesid": 360779, "name": "El Mendarah", "aka": null, "position": null, "mf_name": null }, "geometry": { "type": "Point", "coordinates": [ 31.016664757542703, 27.282160298529874 ] } },
{ "type": "Feature", "properties": { "fid": 28, "geonamesid": null, "name": "Aboù Wad", "aka": null, "position": null, "mf_name": null }, "geometry": { "type": "Point", "coordinates": [ 32.782135131325632, 25.937172806894921 ] } },
{ "type": "Feature", "properties": { "fid": 29, "geonamesid": 353473, "name": "Koum Angàchéh", "aka": null, "position": true, "mf_name": "Kom Ingasha" }, "geometry": { "type": "Point", "coordinates": [ 30.748922403203917, 27.550665689487246 ] } },
{ "type": "Feature", "properties": { "fid": 30, "geonamesid": null, "name": "N. Adràs", "aka": null, "position": null, "mf_name": null }, "geometry": { "type": "Point", "coordinates": [ 30.920589023437952, 27.406982618712295 ] } },
{ "type": "Feature", "properties": { "fid": 33, "geonamesid": 350560, "name": "Qeft", "aka": "Coptos", "position": true, "mf_name": "Qift" }, "geometry": { "type": "Point", "coordinates": [ 32.812210616372113, 25.997747368041949 ] } },
{ "type": "Feature", "properties": { "fid": 36, "geonamesid": null, "name": "El Qasaa", "aka": null, "position": true, "mf_name": "Naga el Waqadab" }, "geometry": { "type": "Point", "coordinates": [ 32.866565891034064, 24.855115170859666 ] } },
{ "type": "Feature", "properties": { "fid": 44, "geonamesid": null, "name": "Gaboùrah", "aka": null, "position": null, "mf_name": null }, "geometry": { "type": "Point", "coordinates": [ 31.361892025903803, 26.733953192942185 ] } },
{ "type": "Feature", "properties": { "fid": 48, "geonamesid": 351633, "name": "Nâhîet el Haggar", "aka": null, "position": true, "mf_name": "Naga el Hagar" }, "geometry": { "type": "Point", "coordinates": [ 32.858055723400234, 24.225234051227687 ] } },
{ "type": "Feature", "properties": { "fid": 51, "geonamesid": null, "name": "El Arabéh", "aka": null, "position": true, "mf_name": "El Araba bi Sohag" }, "geometry": { "type": "Point", "coordinates": [ 31.590214500429589, 26.598116043544994 ] } },
{ "type": "Feature", "properties": { "fid": 55, "geonamesid": null, "name": "Chéik Sélim", "aka": null, "position": null, "mf_name": null }, "geometry": { "type": "Point", "coordinates": [ 31.380115577479678, 26.71128451582311 ] } },
{ "type": "Feature", "properties": { "fid": 57, "geonamesid": null, "name": "Kafr", "aka": null, "position": null, "mf_name": null }, "geometry": { "type": "Point", "coordinates": [ 32.45590150918953, 26.153896159716748 ] } },
{ "type": "Feature", "properties": { "fid": 58, "geonamesid": null, "name": "Ezbet Dabes", "aka": null, "position": null, "mf_name": null }, "geometry": { "type": "Point", "coordinates": [ 31.551245146498196, 26.812778426960872 ] } },
{ "type": "Feature", "properties": { "fid": 61, "geonamesid": null, "name": "El Chowàhin", "aka": null, "position": null, "mf_name": null }, "geometry": { "type": "Point", "coordinates": [ 31.993521156713065, 26.326935078142657 ] } },
{ "type": "Feature", "properties": { "fid": 63, "geonamesid": 360842, "name": "Mahalléh", "aka": null, "position": true, "mf_name": "El Mualla" }, "geometry": { "type": "Point", "coordinates": [ 32.520074539473285, 25.472758520117111 ] } },
{ "type": "Feature", "properties": { "fid": 67, "geonamesid": null, "name": "Qamàni", "aka": null, "position": null, "mf_name": null }, "geometry": { "type": "Point", "coordinates": [ 32.262232393220806, 26.217834936240632 ] } },
{ "type": "Feature", "properties": { "fid": 68, "geonamesid": null, "name": "El Maifen", "aka": null, "position": null, "mf_name": null }, "geometry": { "type": "Point", "coordinates": [ 31.659554682838806, 26.570223422915461 ] } },
{ "type": "Feature", "properties": { "fid": 69, "geonamesid": null, "name": "Qabaouil", "aka": null, "position": null, "mf_name": null }, "geometry": { "type": "Point", "coordinates": [ 32.726638140636872, 25.829672671743676 ] } },
{ "type": "Feature", "properties": { "fid": 71, "geonamesid": null, "name": "Noùtah", "aka": null, "position": null, "mf_name": null }, "geometry": { "type": "Point", "coordinates": [ 32.673234824381908, 26.174633379203168 ] } },
{ "type": "Feature", "properties": { "fid": 72, "geonamesid": null, "name": "Foû", "aka": null, "position": null, "mf_name": null }, "geometry": { "type": "Point", "coordinates": [ 32.469038678390142, 26.250928836271335 ] } },
{ "type": "Feature", "properties": { "fid": 75, "geonamesid": 360915, "name": "El Attarah", "aka": null, "position": true, "mf_name": "El Khattara" }, "geometry": { "type": "Point", "coordinates": [ 32.879143646938473, 24.199454669477664 ] } },
{ "type": "Feature", "properties": { "fid": 77, "geonamesid": 360056, "name": "Agfoùn", "aka": null, "position": true, "mf_name": "Asfun el Matana" }, "geometry": { "type": "Point", "coordinates": [ 32.542264023828849, 25.392330275569158 ] } },
{ "type": "Feature", "properties": { "fid": 78, "geonamesid": 361438, "name": "Ballàs", "aka": null, "position": null, "mf_name": null }, "geometry": { "type": "Point", "coordinates": [ 32.720539900877576, 26.013372384551918 ] } },
{ "type": "Feature", "properties": { "fid": 81, "geonamesid": null, "name": "El Qaeàqòus", "aka": null, "position": null, "mf_name": null }, "geometry": { "type": "Point", "coordinates": [ 32.735154580339753, 25.882162477130652 ] } },
{ "type": "Feature", "properties": { "fid": 82, "geonamesid": null, "name": "Céik Mahàn", "aka": null, "position": null, "mf_name": null }, "geometry": { "type": "Point", "coordinates": [ 32.411299655184465, 26.25485923435706 ] } },
{ "type": "Feature", "properties": { "fid": 86, "geonamesid": null, "name": "Chéïk Chabl", "aka": null, "position": true, "mf_name": "El Sheikh Shebl" }, "geometry": { "type": "Point", "coordinates": [ 31.565045405177155, 26.703441362650125 ] } },
{ "type": "Feature", "properties": { "fid": 92, "geonamesid": 361838, "name": "Déir", "aka": null, "position": true, "mf_name": "El Deir" }, "geometry": { "type": "Point", "coordinates": [ 32.578783949870214, 25.335298056266701 ] } },
{ "type": "Feature", "properties": { "fid": 94, "geonamesid": null, "name": "Semen", "aka": null, "position": null, "mf_name": null }, "geometry": { "type": "Point", "coordinates": [ 32.696934601249232, 25.809697101295399 ] } },
{ "type": "Feature", "properties": { "fid": 95, "geonamesid": null, "name": "El Kelàbehì", "aka": null, "position": null, "mf_name": null }, "geometry": { "type": "Point", "coordinates": [ 32.759857815027132, 23.713749612151176 ] } },
{ "type": "Feature", "properties": { "fid": 98, "geonamesid": null, "name": "Nezlet el Aràb", "aka": null, "position": null, "mf_name": null }, "geometry": { "type": "Point", "coordinates": [ 31.462717319010849, 26.949972134891873 ] } },
{ "type": "Feature", "properties": { "fid": 100, "geonamesid": null, "name": "El Koùm", "aka": null, "position": true, "mf_name": "El Amri" }, "geometry": { "type": "Point", "coordinates": [ 31.355620026941288, 26.905190372219788 ] } },
{ "type": "Feature", "properties": { "fid": 102, "geonamesid": 347572, "name": "El Tell", "aka": null, "position": null, "mf_name": null }, "geometry": { "type": "Point", "coordinates": [ 30.897924253613819, 27.66679141343684 ] } },
{ "type": "Feature", "properties": { "fid": 104, "geonamesid": null, "name": "El Agàgìéh", "aka": null, "position": null, "mf_name": null }, "geometry": { "type": "Point", "coordinates": [ 31.529235802691083, 26.556337518447119 ] } },
{ "type": "Feature", "properties": { "fid": 105, "geonamesid": 360876, "name": "Qerméléh", "aka": null, "position": true, "mf_name": "Naga Qarmila" }, "geometry": { "type": "Point", "coordinates": [ 32.87184188782377, 24.251506174964259 ] } },
{ "type": "Feature", "properties": { "fid": 107, "geonamesid": null, "name": "El Seràg", "aka": null, "position": null, "mf_name": null }, "geometry": { "type": "Point", "coordinates": [ 32.889179818821027, 24.850212422287964 ] } },
{ "type": "Feature", "properties": { "fid": 110, "geonamesid": null, "name": "Kafr", "aka": null, "position": null, "mf_name": null }, "geometry": { "type": "Point", "coordinates": [ 32.296324719500269, 26.216270861202325 ] } },
{ "type": "Feature", "properties": { "fid": 113, "geonamesid": null, "name": "El Arab", "aka": null, "position": null, "mf_name": null }, "geometry": { "type": "Point", "coordinates": [ 31.961678085373965, 26.307237150110655 ] } },
{ "type": "Feature", "properties": { "fid": 114, "geonamesid": null, "name": "Kafr Chéik", "aka": null, "position": null, "mf_name": null }, "geometry": { "type": "Point", "coordinates": [ 32.738317828573422, 25.906827247861617 ] } },
{ "type": "Feature", "properties": { "fid": 117, "geonamesid": null, "name": "K.Hamàdéh", "aka": null, "position": null, "mf_name": null }, "geometry": { "type": "Point", "coordinates": [ 32.198029497312419, 26.301983438083749 ] } },
{ "type": "Feature", "properties": { "fid": 127, "geonamesid": null, "name": "Chedieh", "aka": null, "position": null, "mf_name": null }, "geometry": { "type": "Point", "coordinates": [ 32.889084681911072, 24.171482728544934 ] } },
{ "type": "Feature", "properties": { "fid": 128, "geonamesid": null, "name": "Choûchéh", "aka": null, "position": null, "mf_name": null }, "geometry": { "type": "Point", "coordinates": [ 31.703557067502107, 26.490003109510877 ] } },
{ "type": "Feature", "properties": { "fid": 131, "geonamesid": 361424, "name": "Beràméh", "aka": null, "position": true, "mf_name": "El Barahma" }, "geometry": { "type": "Point", "coordinates": [ 32.797376617607441, 26.014085755982233 ] } },
{ "type": "Feature", "properties": { "fid": 139, "geonamesid": null, "name": "K. el Kerdm", "aka": null, "position": null, "mf_name": null }, "geometry": { "type": "Point", "coordinates": [ 31.905547134205278, 26.315110157042533 ] } },
{ "type": "Feature", "properties": { "fid": 140, "geonamesid": null, "name": "Gézìréh", "aka": null, "position": null, "mf_name": null }, "geometry": { "type": "Point", "coordinates": [ 32.493020930744166, 25.4224812119711 ] } },
{ "type": "Feature", "properties": { "fid": 145, "geonamesid": null, "name": "K'El Abediéh", "aka": null, "position": null, "mf_name": null }, "geometry": { "type": "Point", "coordinates": [ 32.098060887656978, 26.288019158694098 ] } },
{ "type": "Feature", "properties": { "fid": 147, "geonamesid": null, "name": "El Hawàtkéh", "aka": null, "position": true, "mf_name": "El Hawatka" }, "geometry": { "type": "Point", "coordinates": [ 31.020521402051699, 27.273531637789713 ] } },
{ "type": "Feature", "properties": { "fid": 149, "geonamesid": null, "name": "N. El Ansàr", "aka": null, "position": null, "mf_name": null }, "geometry": { "type": "Point", "coordinates": [ 30.776402454625156, 27.427333203494694 ] } },
{ "type": "Feature", "properties": { "fid": 161, "geonamesid": null, "name": "N. Hàgg Ombàrk", "aka": null, "position": null, "mf_name": null }, "geometry": { "type": "Point", "coordinates": [ 30.835727813991106, 27.510652979078539 ] } },
{ "type": "Feature", "properties": { "fid": 164, "geonamesid": 356948, "name": "Fàrès", "aka": null, "position": null, "mf_name": null }, "geometry": { "type": "Point", "coordinates": [ 32.900927942470915, 24.600359698448859 ] } },
{ "type": "Feature", "properties": { "fid": 165, "geonamesid": 360118, "name": "El Reremoùn", "aka": null, "position": true, "mf_name": "El Rairamun" }, "geometry": { "type": "Point", "coordinates": [ 30.866370529637706, 27.749597257094603 ] } },
{ "type": "Feature", "properties": { "fid": 166, "geonamesid": 358422, "name": "Denderah", "aka": null, "position": null, "mf_name": null }, "geometry": { "type": "Point", "coordinates": [ 32.701760919093758, 26.179014454019239 ] } },
{ "type": "Feature", "properties": { "fid": 168, "geonamesid": null, "name": "Aboù Hamoùd", "aka": null, "position": true, "mf_name": "Hoshet Abu Amud" }, "geometry": { "type": "Point", "coordinates": [ 32.608133053274663, 25.681472259954845 ] } },
{ "type": "Feature", "properties": { "fid": 170, "geonamesid": null, "name": "El Hàrah", "aka": null, "position": null, "mf_name": null }, "geometry": { "type": "Point", "coordinates": [ 32.338812748040048, 26.18840015964771 ] } },
{ "type": "Feature", "properties": { "fid": 172, "geonamesid": null, "name": "Kafr", "aka": null, "position": null, "mf_name": null }, "geometry": { "type": "Point", "coordinates": [ 32.419691930705923, 26.152591604386117 ] } },
{ "type": "Feature", "properties": { "fid": 178, "geonamesid": null, "name": "Sagoùlt", "aka": null, "position": null, "mf_name": null }, "geometry": { "type": "Point", "coordinates": [ 31.639920829654869, 26.612110003930756 ] } },
{ "type": "Feature", "properties": { "fid": 182, "geonamesid": null, "name": "Kafr Cheik 'Abdel Qàwì", "aka": null, "position": null, "mf_name": null }, "geometry": { "type": "Point", "coordinates": [ 32.64070507821824, 25.670972640062619 ] } },
{ "type": "Feature", "properties": { "fid": 188, "geonamesid": null, "name": "Nezlet Hàie", "aka": null, "position": null, "mf_name": null }, "geometry": { "type": "Point", "coordinates": [ 31.509606945279241, 26.902429400991387 ] } },
{ "type": "Feature", "properties": { "fid": 191, "geonamesid": null, "name": "Nàhiet el Amran", "aka": null, "position": null, "mf_name": null }, "geometry": { "type": "Point", "coordinates": [ 32.179749181050965, 26.27794042792797 ] } },
{ "type": "Feature", "properties": { "fid": 196, "geonamesid": null, "name": "Deir", "aka": "Counent", "position": null, "mf_name": null }, "geometry": { "type": "Point", "coordinates": [ 31.532246035460449, 26.901265575116426 ] } },
{ "type": "Feature", "properties": { "fid": 197, "geonamesid": 359675, "name": "El Tora", "aka": null, "position": true, "mf_name": "El Teweirat" }, "geometry": { "type": "Point", "coordinates": [ 32.737869177304034, 26.108030494788387 ] } },
{ "type": "Feature", "properties": { "fid": 199, "geonamesid": null, "name": "El Kolgan", "aka": null, "position": null, "mf_name": null }, "geometry": { "type": "Point", "coordinates": [ 31.953268728920502, 26.307273720024394 ] } },
{ "type": "Feature", "properties": { "fid": 217, "geonamesid": 361636, "name": "El Agànéh", "aka": null, "position": true, "mf_name": "El Aghana" }, "geometry": { "type": "Point", "coordinates": [ 31.339746605357821, 26.856031414642406 ] } },
{ "type": "Feature", "properties": { "fid": 218, "geonamesid": null, "name": "El Dowà", "aka": null, "position": null, "mf_name": null }, "geometry": { "type": "Point", "coordinates": [ 32.733108856215665, 25.815561458833049 ] } },
{ "type": "Feature", "properties": { "fid": 220, "geonamesid": null, "name": "El Hammàchéh", "aka": null, "position": null, "mf_name": null }, "geometry": { "type": "Point", "coordinates": [ 32.755961916295625, 25.904735473577698 ] } },
{ "type": "Feature", "properties": { "fid": 231, "geonamesid": null, "name": "El Asàrah", "aka": null, "position": null, "mf_name": null }, "geometry": { "type": "Point", "coordinates": [ 32.733719588913765, 25.844068833294433 ] } },
{ "type": "Feature", "properties": { "fid": 232, "geonamesid": null, "name": "Koûm Aboù Amrân", "aka": null, "position": true, "mf_name": "Naga Karam Amran" }, "geometry": { "type": "Point", "coordinates": [ 32.806455150121671, 26.080062525977731 ] } },
{ "type": "Feature", "properties": { "fid": 234, "geonamesid": null, "name": "Demàsieh", "aka": null, "position": null, "mf_name": null }, "geometry": { "type": "Point", "coordinates": [ 32.851641062973783, 25.046938630808974 ] } },
{ "type": "Feature", "properties": { "fid": 240, "geonamesid": null, "name": "Soùnah", "aka": null, "position": true, "mf_name": "Shanaina" }, "geometry": { "type": "Point", "coordinates": [ 31.379815007772972, 26.911290816104707 ] } },
{ "type": "Feature", "properties": { "fid": 241, "geonamesid": null, "name": "Kafr Armant", "aka": null, "position": true, "mf_name": "Armant" }, "geometry": { "type": "Point", "coordinates": [ 32.539974606297378, 25.619449420812884 ] } },
{ "type": "Feature", "properties": { "fid": 243, "geonamesid": null, "name": "Kafr", "aka": null, "position": null, "mf_name": null }, "geometry": { "type": "Point", "coordinates": [ 31.913715371165619, 26.358335040974065 ] } },
{ "type": "Feature", "properties": { "fid": 250, "geonamesid": null, "name": "El Hibéh", "aka": null, "position": null, "mf_name": null }, "geometry": { "type": "Point", "coordinates": [ 32.649988772437538, 25.20973446509436 ] } },
{ "type": "Feature", "properties": { "fid": 252, "geonamesid": null, "name": "El Oûïoùrah", "aka": null, "position": null, "mf_name": null }, "geometry": { "type": "Point", "coordinates": [ 31.369987175587223, 26.820427082283707 ] } },
{ "type": "Feature", "properties": { "fid": 256, "geonamesid": 361548, "name": "Etqa", "aka": null, "position": null, "mf_name": null }, "geometry": { "type": "Point", "coordinates": [ 30.756493042442113, 27.782650871579314 ] } },
{ "type": "Feature", "properties": { "fid": 261, "geonamesid": null, "name": "Qàoù el Kebir", "aka": "Antaepolis", "position": null, "mf_name": null }, "geometry": { "type": "Point", "coordinates": [ 31.527592658187846, 26.877338159748252 ] } },
{ "type": "Feature", "properties": { "fid": 262, "geonamesid": null, "name": "El Ferâmah", "aka": null, "position": null, "mf_name": null }, "geometry": { "type": "Point", "coordinates": [ 32.535982313080481, 26.146158298943416 ] } },
{ "type": "Feature", "properties": { "fid": 263, "geonamesid": null, "name": "Eddar", "aka": null, "position": null, "mf_name": null }, "geometry": { "type": "Point", "coordinates": [ 32.500390233955876, 25.581237197380489 ] } },
{ "type": "Feature", "properties": { "fid": 269, "geonamesid": 350135, "name": "Rìféh", "aka": null, "position": true, "mf_name": "Rifa" }, "geometry": { "type": "Point", "coordinates": [ 31.207228240901411, 27.096037606223089 ] } },
{ "type": "Feature", "properties": { "fid": 270, "geonamesid": null, "name": "El Gezir", "aka": null, "position": null, "mf_name": null }, "geometry": { "type": "Point", "coordinates": [ 32.297149083284594, 26.256112833705579 ] } },
{ "type": "Feature", "properties": { "fid": 271, "geonamesid": null, "name": "El Kermàt", "aka": null, "position": null, "mf_name": null }, "geometry": { "type": "Point", "coordinates": [ 32.535958918321299, 25.239093524480907 ] } },
{ "type": "Feature", "properties": { "fid": 278, "geonamesid": 347238, "name": "Kafr Chéik el Touk", "aka": null, "position": null, "mf_name": null }, "geometry": { "type": "Point", "coordinates": [ 32.748992058953476, 25.912571853472972 ] } },
{ "type": "Feature", "properties": { "fid": 281, "geonamesid": null, "name": "Naga el Qarìéh", "aka": null, "position": null, "mf_name": null }, "geometry": { "type": "Point", "coordinates": [ 32.668635634558377, 25.707556691549563 ] } },
{ "type": "Feature", "properties": { "fid": 284, "geonamesid": null, "name": "Aboù 'Kàlìl", "aka": null, "position": null, "mf_name": null }, "geometry": { "type": "Point", "coordinates": [ 31.520881193587613, 26.688236391941611 ] } },
{ "type": "Feature", "properties": { "fid": 286, "geonamesid": null, "name": "K. Mit Qadim", "aka": null, "position": null, "mf_name": null }, "geometry": { "type": "Point", "coordinates": [ 32.464986354438402, 25.590515045217522 ] } },
{ "type": "Feature", "properties": { "fid": 293, "geonamesid": 348962, "name": "Sadféh", "aka": "Apollinis Minor Civitas", "position": true, "mf_name": "Sidfa" }, "geometry": { "type": "Point", "coordinates": [ 31.378436549170498, 26.966741724458672 ] } },
{ "type": "Feature", "properties": { "fid": 295, "geonamesid": null, "name": "Kel Ferâmah", "aka": null, "position": null, "mf_name": null }, "geometry": { "type": "Point", "coordinates": [ 32.543519683085179, 26.145971495616639 ] } },
{ "type": "Feature", "properties": { "fid": 303, "geonamesid": null, "name": "El Baïe", "aka": null, "position": null, "mf_name": null }, "geometry": { "type": "Point", "coordinates": [ 31.699320442421481, 26.526938548996352 ] } },
{ "type": "Feature", "properties": { "fid": 306, "geonamesid": null, "name": "El Kariéh", "aka": null, "position": null, "mf_name": null }, "geometry": { "type": "Point", "coordinates": [ 32.735852160312533, 25.812708864717774 ] } },
{ "type": "Feature", "properties": { "fid": 309, "geonamesid": null, "name": "Mìt Ahmar", "aka": null, "position": true, "mf_name": "Naga Hamad" }, "geometry": { "type": "Point", "coordinates": [ 31.664286733353958, 26.515855559471568 ] } },
{ "type": "Feature", "properties": { "fid": 311, "geonamesid": null, "name": "El Oùatnà", "aka": null, "position": null, "mf_name": null }, "geometry": { "type": "Point", "coordinates": [ 31.443267692479413, 26.911084585546856 ] } },
{ "type": "Feature", "properties": { "fid": 315, "geonamesid": 361392, "name": "El Qerìéh", "aka": null, "position": null, "mf_name": null }, "geometry": { "type": "Point", "coordinates": [ 31.900923231909768, 26.352808747762431 ] } },
{ "type": "Feature", "properties": { "fid": 316, "geonamesid": null, "name": "Nezlet Mohammed", "aka": null, "position": null, "mf_name": null }, "geometry": { "type": "Point", "coordinates": [ 31.128813843726427, 27.242288393596155 ] } },
{ "type": "Feature", "properties": { "fid": 319, "geonamesid": null, "name": "El Qasàs", "aka": null, "position": null, "mf_name": null }, "geometry": { "type": "Point", "coordinates": [ 32.782640474010201, 26.126595579006079 ] } },
{ "type": "Feature", "properties": { "fid": 321, "geonamesid": null, "name": "El safféh", "aka": null, "position": null, "mf_name": null }, "geometry": { "type": "Point", "coordinates": [ 31.480195127492653, 26.573503623388962 ] } },
{ "type": "Feature", "properties": { "fid": 327, "geonamesid": null, "name": "Chéik Ombark", "aka": null, "position": true, "mf_name": "Naga el Sheikh Ombarck" }, "geometry": { "type": "Point", "coordinates": [ 31.413703256795827, 26.795427330161015 ] } },
{ "type": "Feature", "properties": { "fid": 329, "geonamesid": null, "name": "Gemris", "aka": null, "position": true, "mf_name": "Gamris" }, "geometry": { "type": "Point", "coordinates": [ 30.978912194105529, 27.306636774038861 ] } },
{ "type": "Feature", "properties": { "fid": 330, "geonamesid": null, "name": "Ezbet Aoùlàd Sàlem", "aka": null, "position": null, "mf_name": null }, "geometry": { "type": "Point", "coordinates": [ 31.550602797389814, 26.857832445298435 ] } },
{ "type": "Feature", "properties": { "fid": 336, "geonamesid": null, "name": "Karbéh", "aka": null, "position": null, "mf_name": null }, "geometry": { "type": "Point", "coordinates": [ 31.65417926590532, 26.445285602363796 ] } },
{ "type": "Feature", "properties": { "fid": 349, "geonamesid": 351450, "name": "El Qobbéh", "aka": null, "position": false, "mf_name": "Naga el Golab" }, "geometry": { "type": "Point", "coordinates": [ 32.889975617287519, 24.111972743382438 ] } },
{ "type": "Feature", "properties": { "fid": 350, "geonamesid": null, "name": "El Hesseli", "aka": null, "position": null, "mf_name": null }, "geometry": { "type": "Point", "coordinates": [ 31.92910494034653, 26.319634554759077 ] } },
{ "type": "Feature", "properties": { "fid": 352, "geonamesid": 359221, "name": "Bénì Kàled", "aka": null, "position": null, "mf_name": null }, "geometry": { "type": "Point", "coordinates": [ 30.738990526816636, 27.836963293831214 ] } },
{ "type": "Feature", "properties": { "fid": 353, "geonamesid": null, "name": "Naga", "aka": null, "position": true, "mf_name": "Naga Baqlulis" }, "geometry": { "type": "Point", "coordinates": [ 32.902064770263372, 24.297295179155956 ] } },
{ "type": "Feature", "properties": { "fid": 356, "geonamesid": null, "name": null, "aka": null, "position": null, "mf_name": null }, "geometry": { "type": "Point", "coordinates": [ 30.952565343274003, 27.315671118633944 ] } },
{ "type": "Feature", "properties": { "fid": 363, "geonamesid": null, "name": "Nagaa el Gebel", "aka": null, "position": null, "mf_name": null }, "geometry": { "type": "Point", "coordinates": [ 32.633625279887198, 25.214797533321544 ] } },
{ "type": "Feature", "properties": { "fid": 371, "geonamesid": null, "name": "Kafr", "aka": null, "position": null, "mf_name": null }, "geometry": { "type": "Point", "coordinates": [ 32.751074079636631, 25.89456962175392 ] } },
{ "type": "Feature", "properties": { "fid": 372, "geonamesid": null, "name": null, "aka": null, "position": null, "mf_name": null }, "geometry": { "type": "Point", "coordinates": [ 32.715129606099694, 26.170699645068957 ] } },
{ "type": "Feature", "properties": { "fid": 375, "geonamesid": null, "name": "El Hamàdìéh", "aka": null, "position": true, "mf_name": "El Amaida" }, "geometry": { "type": "Point", "coordinates": [ 31.729827410592524, 26.420095924881384 ] } },
{ "type": "Feature", "properties": { "fid": 380, "geonamesid": null, "name": "K. el Reremoùn", "aka": null, "position": null, "mf_name": null }, "geometry": { "type": "Point", "coordinates": [ 30.859313992374148, 27.751550405801481 ] } },
{ "type": "Feature", "properties": { "fid": 381, "geonamesid": null, "name": "Nemràt", "aka": null, "position": null, "mf_name": null }, "geometry": { "type": "Point", "coordinates": [ 32.548884640002704, 25.232316689654986 ] } },
{ "type": "Feature", "properties": { "fid": 386, "geonamesid": null, "name": "K.  El Fargi", "aka": null, "position": null, "mf_name": null }, "geometry": { "type": "Point", "coordinates": [ 32.767757124392055, 26.088646415914006 ] } },
{ "type": "Feature", "properties": { "fid": 393, "geonamesid": null, "name": "El Hàmoud", "aka": null, "position": null, "mf_name": null }, "geometry": { "type": "Point", "coordinates": [ 32.758823572150234, 25.949435465927365 ] } },
{ "type": "Feature", "properties": { "fid": 398, "geonamesid": null, "name": "Ezbet Solimàn", "aka": null, "position": true, "mf_name": "Selim" }, "geometry": { "type": "Point", "coordinates": [ 31.416253658693421, 26.852152089783988 ] } },
{ "type": "Feature", "properties": { "fid": 399, "geonamesid": 361527, "name": "El Atàmnéh", "aka": null, "position": true, "mf_name": "El Atamna" }, "geometry": { "type": "Point", "coordinates": [ 30.899738490887263, 27.290044236742411 ] } },
{ "type": "Feature", "properties": { "fid": 400, "geonamesid": null, "name": "K. Aboù Koréib", "aka": null, "position": null, "mf_name": null }, "geometry": { "type": "Point", "coordinates": [ 32.052381613193724, 26.301646277713804 ] } },
{ "type": "Feature", "properties": { "fid": 402, "geonamesid": null, "name": "Abou Kitab", "aka": null, "position": null, "mf_name": null }, "geometry": { "type": "Point", "coordinates": [ 32.866381334029015, 24.993727461125477 ] } },
{ "type": "Feature", "properties": { "fid": 405, "geonamesid": 359916, "name": "Sàaideh", "aka": null, "position": true, "mf_name": "El Saaida el Qibli" }, "geometry": { "type": "Point", "coordinates": [ 32.826888750353262, 25.071987852526043 ] } },
{ "type": "Feature", "properties": { "fid": 408, "geonamesid": null, "name": "Chéik Moùça", "aka": null, "position": null, "mf_name": null }, "geometry": { "type": "Point", "coordinates": [ 31.368195915408712, 27.063773211063531 ] } },
{ "type": "Feature", "properties": { "fid": 414, "geonamesid": null, "name": "Village", "aka": null, "position": null, "mf_name": null }, "geometry": { "type": "Point", "coordinates": [ 31.74432217771346, 26.432808205668096 ] } },
{ "type": "Feature", "properties": { "fid": 416, "geonamesid": null, "name": "Aboùlìéh", "aka": null, "position": null, "mf_name": null }, "geometry": { "type": "Point", "coordinates": [ 32.190119215487172, 26.270157926662812 ] } },
{ "type": "Feature", "properties": { "fid": 420, "geonamesid": 360170, "name": "Hermonthis", "aka": "Erment", "position": null, "mf_name": null }, "geometry": { "type": "Point", "coordinates": [ 32.539586660323941, 25.61022432720101 ] } },
{ "type": "Feature", "properties": { "fid": 421, "geonamesid": null, "name": "El Abìdéh", "aka": null, "position": null, "mf_name": null }, "geometry": { "type": "Point", "coordinates": [ 32.445457696641185, 26.210308744095489 ] } },
{ "type": "Feature", "properties": { "fid": 426, "geonamesid": 359189, "name": "Bénì Sàléh", "aka": null, "position": true, "mf_name": "Beni Saleh" }, "geometry": { "type": "Point", "coordinates": [ 30.767084180078481, 27.451075705004765 ] } },
{ "type": "Feature", "properties": { "fid": 427, "geonamesid": null, "name": "El Qerìéh", "aka": null, "position": null, "mf_name": null }, "geometry": { "type": "Point", "coordinates": [ 31.472594806243638, 26.640295894335427 ] } },
{ "type": "Feature", "properties": { "fid": 431, "geonamesid": null, "name": "Nezlet el Damràie", "aka": null, "position": true, "mf_name": "Nezlet el Domaira" }, "geometry": { "type": "Point", "coordinates": [ 31.115365355024903, 27.235489553212094 ] } },
{ "type": "Feature", "properties": { "fid": 434, "geonamesid": 360332, "name": "El Nàhìéh", "aka": "El Aràmieh", "position": true, "mf_name": "El Nahaia" }, "geometry": { "type": "Point", "coordinates": [ 30.758304900169048, 27.494122733017807 ] } },
{ "type": "Feature", "properties": { "fid": 437, "geonamesid": null, "name": "El Amrân", "aka": null, "position": null, "mf_name": null }, "geometry": { "type": "Point", "coordinates": [ 32.178799140705351, 26.285413725918218 ] } },
{ "type": "Feature", "properties": { "fid": 438, "geonamesid": null, "name": "Kafr", "aka": null, "position": null, "mf_name": null }, "geometry": { "type": "Point", "coordinates": [ 32.195801556660932, 26.321396723275708 ] } },
{ "type": "Feature", "properties": { "fid": 439, "geonamesid": null, "name": "Aboù Hàmoùdì", "aka": null, "position": null, "mf_name": null }, "geometry": { "type": "Point", "coordinates": [ 32.781613879687995, 25.968590618006893 ] } },
{ "type": "Feature", "properties": { "fid": 441, "geonamesid": null, "name": "El Kalìl", "aka": null, "position": null, "mf_name": null }, "geometry": { "type": "Point", "coordinates": [ 32.715348330506693, 25.854905386174256 ] } },
{ "type": "Feature", "properties": { "fid": 445, "geonamesid": null, "name": "Cheik Amràn", "aka": null, "position": null, "mf_name": null }, "geometry": { "type": "Point", "coordinates": [ 32.708811696037451, 26.195000986786063 ] } },
{ "type": "Feature", "properties": { "fid": 447, "geonamesid": null, "name": "El Dàrièh", "aka": null, "position": null, "mf_name": null }, "geometry": { "type": "Point", "coordinates": [ 32.642515953363862, 26.190472366756335 ] } },
{ "type": "Feature", "properties": { "fid": 449, "geonamesid": null, "name": "Cheik Alì", "aka": null, "position": true, "mf_name": "Naga el Sheikh Ali" }, "geometry": { "type": "Point", "coordinates": [ 31.431891569709162, 26.978115869916788 ] } },
{ "type": "Feature", "properties": { "fid": 453, "geonamesid": null, "name": "El Doùéir", "aka": "361812", "position": true, "mf_name": "El Diweir" }, "geometry": { "type": "Point", "coordinates": [ 31.351944732417554, 26.962128721541493 ] } },
{ "type": "Feature", "properties": { "fid": 455, "geonamesid": null, "name": "Nezlét Keleïb", "aka": null, "position": true, "mf_name": "Nazlet Keleib" }, "geometry": { "type": "Point", "coordinates": [ 30.75700399491695, 27.463459932488938 ] } },
{ "type": "Feature", "properties": { "fid": 457, "geonamesid": 362901, "name": "Aboù el Heder", "aka": null, "position": true, "mf_name": "Abu el Hedr" }, "geometry": { "type": "Point", "coordinates": [ 30.747323634860791, 27.612921221253998 ] } },
{ "type": "Feature", "properties": { "fid": 460, "geonamesid": null, "name": "Nezlet Dàoùr", "aka": null, "position": true, "mf_name": "Naga el Damer" }, "geometry": { "type": "Point", "coordinates": [ 31.38302628423796, 26.786096949404332 ] } },
{ "type": "Feature", "properties": { "fid": 462, "geonamesid": null, "name": "Nâhìeẗ Hawàtkah", "aka": null, "position": null, "mf_name": null }, "geometry": { "type": "Point", "coordinates": [ 32.565665755294162, 26.273949480272918 ] } },
{ "type": "Feature", "properties": { "fid": 463, "geonamesid": null, "name": "El Masrah", "aka": null, "position": true, "mf_name": "El Masara" }, "geometry": { "type": "Point", "coordinates": [ 31.222259879108101, 27.205290374112458 ] } },
{ "type": "Feature", "properties": { "fid": 469, "geonamesid": 361564, "name": "Al-Aqàltéh", "aka": null, "position": true, "mf_name": "El Aqalta" }, "geometry": { "type": "Point", "coordinates": [ 32.613325020623776, 25.681781305630402 ] } },
{ "type": "Feature", "properties": { "fid": 472, "geonamesid": null, "name": "Menehàt Benì Adris", "aka": null, "position": null, "mf_name": null }, "geometry": { "type": "Point", "coordinates": [ 30.806990160904089, 27.451029126585052 ] } },
{ "type": "Feature", "properties": { "fid": 473, "geonamesid": 355115, "name": "El Aouàmiéh", "aka": null, "position": null, "mf_name": null }, "geometry": { "type": "Point", "coordinates": [ 32.635215296984121, 25.679228206751333 ] } },
{ "type": "Feature", "properties": { "fid": 482, "geonamesid": null, "name": "Koùm Saïd", "aka": null, "position": true, "mf_name": "Kom Said el Gharbi" }, "geometry": { "type": "Point", "coordinates": [ 31.361286201939464, 26.917687103031014 ] } },
{ "type": "Feature", "properties": { "fid": 487, "geonamesid": null, "name": "El Asàrah", "aka": null, "position": null, "mf_name": null }, "geometry": { "type": "Point", "coordinates": [ 32.720563708000064, 25.772685305900719 ] } },
{ "type": "Feature", "properties": { "fid": 492, "geonamesid": null, "name": "Kafr Elnìt", "aka": null, "position": null, "mf_name": null }, "geometry": { "type": "Point", "coordinates": [ 32.530362655574578, 25.332894079232165 ] } },
{ "type": "Feature", "properties": { "fid": 494, "geonamesid": null, "name": "El Akàrmeh", "aka": null, "position": null, "mf_name": null }, "geometry": { "type": "Point", "coordinates": [ 32.876622973407848, 24.811891945758834 ] } },
{ "type": "Feature", "properties": { "fid": 502, "geonamesid": null, "name": "Kafr Aboù", "aka": null, "position": null, "mf_name": null }, "geometry": { "type": "Point", "coordinates": [ 32.732731224345983, 26.156041401995981 ] } },
{ "type": "Feature", "properties": { "fid": 509, "geonamesid": null, "name": "Kafr", "aka": null, "position": null, "mf_name": null }, "geometry": { "type": "Point", "coordinates": [ 32.799579433354978, 26.138555669647346 ] } },
{ "type": "Feature", "properties": { "fid": 513, "geonamesid": 347888, "name": "Charquà", "aka": null, "position": true, "mf_name": "Serqena" }, "geometry": { "type": "Point", "coordinates": [ 30.772032021611093, 27.60443362687014 ] } },
{ "type": "Feature", "properties": { "fid": 514, "geonamesid": null, "name": "Nahìet Toûk", "aka": null, "position": null, "mf_name": null }, "geometry": { "type": "Point", "coordinates": [ 32.181479684804593, 26.192570880759106 ] } },
{ "type": "Feature", "properties": { "fid": 518, "geonamesid": null, "name": "El Kamìs", "aka": null, "position": null, "mf_name": null }, "geometry": { "type": "Point", "coordinates": [ 32.210353163915592, 26.273388643214751 ] } },
{ "type": "Feature", "properties": { "fid": 522, "geonamesid": null, "name": "Kel Akdar", "aka": null, "position": null, "mf_name": null }, "geometry": { "type": "Point", "coordinates": [ 31.083403135397724, 27.206612242020729 ] } },
{ "type": "Feature", "properties": { "fid": 524, "geonamesid": null, "name": "Koùm el Almar", "aka": null, "position": true, "mf_name": "El Kom el Ahmar" }, "geometry": { "type": "Point", "coordinates": [ 31.428685330946902, 27.005968724265134 ] } },
{ "type": "Feature", "properties": { "fid": 529, "geonamesid": null, "name": "El Saiadi", "aka": null, "position": null, "mf_name": null }, "geometry": { "type": "Point", "coordinates": [ 31.990818901661832, 26.316513255002178 ] } },
{ "type": "Feature", "properties": { "fid": 533, "geonamesid": 360348, "name": "El Nàsrìéh", "aka": null, "position": true, "mf_name": "El Nasria" }, "geometry": { "type": "Point", "coordinates": [ 30.80269034058681, 27.602182260033914 ] } },
{ "type": "Feature", "properties": { "fid": 535, "geonamesid": 434414, "name": "El Odàr", "aka": null, "position": true, "mf_name": "El Adr" }, "geometry": { "type": "Point", "coordinates": [ 31.100591080027066, 27.243315530562434 ] } },
{ "type": "Feature", "properties": { "fid": 536, "geonamesid": 360656, "name": "El Moqàrabiéh", "aka": null, "position": null, "mf_name": null }, "geometry": { "type": "Point", "coordinates": [ 32.774704484754729, 25.92533472793302 ] } },
{ "type": "Feature", "properties": { "fid": 538, "geonamesid": null, "name": "Sàqiet Qoltéh", "aka": null, "position": null, "mf_name": null }, "geometry": { "type": "Point", "coordinates": [ 31.648596563843586, 26.61924152749215 ] } },
{ "type": "Feature", "properties": { "fid": 539, "geonamesid": null, "name": "Nezlet Omera", "aka": null, "position": null, "mf_name": null }, "geometry": { "type": "Point", "coordinates": [ 31.475475541483306, 26.94122479028276 ] } },
{ "type": "Feature", "properties": { "fid": 542, "geonamesid": null, "name": "El Menqata", "aka": null, "position": true, "mf_name": "El Milaqata" }, "geometry": { "type": "Point", "coordinates": [ 32.885043401963586, 24.187203376384961 ] } },
{ "type": "Feature", "properties": { "fid": 543, "geonamesid": null, "name": "Dehemieh", "aka": null, "position": null, "mf_name": null }, "geometry": { "type": "Point", "coordinates": [ 32.870073921935202, 24.818239971489671 ] } },
{ "type": "Feature", "properties": { "fid": 548, "geonamesid": null, "name": "Abâ Hamkah", "aka": null, "position": null, "mf_name": null }, "geometry": { "type": "Point", "coordinates": [ 32.320830004792057, 26.193806237434615 ] } },
{ "type": "Feature", "properties": { "fid": 557, "geonamesid": null, "name": "Geziret el Fawàsìeh", "aka": "El Fawasieh", "position": null, "mf_name": null }, "geometry": { "type": "Point", "coordinates": [ 32.866657803210181, 24.935569297807028 ] } },
{ "type": "Feature", "properties": { "fid": 558, "geonamesid": null, "name": "El Kannàqéh", "aka": null, "position": null, "mf_name": null }, "geometry": { "type": "Point", "coordinates": [ 32.936668002102202, 24.369822136857362 ] } },
{ "type": "Feature", "properties": { "fid": 563, "geonamesid": null, "name": "El Helléh", "aka": null, "position": null, "mf_name": null }, "geometry": { "type": "Point", "coordinates": [ 32.705768982676062, 25.136645736909255 ] } },
{ "type": "Feature", "properties": { "fid": 565, "geonamesid": null, "name": "EL Qéràïe", "aka": null, "position": null, "mf_name": null }, "geometry": { "type": "Point", "coordinates": [ 32.756888907152927, 25.926153843729711 ] } },
{ "type": "Feature", "properties": { "fid": 566, "geonamesid": null, "name": "El Agàgiéh", "aka": null, "position": null, "mf_name": null }, "geometry": { "type": "Point", "coordinates": [ 32.92903639000513, 24.773647063706566 ] } },
{ "type": "Feature", "properties": { "fid": 568, "geonamesid": null, "name": "K. Rezqàt", "aka": null, "position": null, "mf_name": null }, "geometry": { "type": "Point", "coordinates": [ 32.506333039524549, 25.603315210886802 ] } },
{ "type": "Feature", "properties": { "fid": 574, "geonamesid": null, "name": "Aoùlàd Qas", "aka": null, "position": null, "mf_name": null }, "geometry": { "type": "Point", "coordinates": [ 31.846873266567986, 26.372129671334257 ] } },
{ "type": "Feature", "properties": { "fid": 575, "geonamesid": 359783, "name": "Açiùt", "aka": "Siout, Lycopolis", "position": true, "mf_name": "Assiut" }, "geometry": { "type": "Point", "coordinates": [ 31.176525909577457, 27.174567724512791 ] } },
{ "type": "Feature", "properties": { "fid": 577, "geonamesid": null, "name": "El Anowàniéh", "aka": null, "position": null, "mf_name": null }, "geometry": { "type": "Point", "coordinates": [ 32.709003382352535, 25.15842289773946 ] } },
{ "type": "Feature", "properties": { "fid": 579, "geonamesid": 360406, "name": "Amchoul", "aka": null, "position": true, "mf_name": "Imshul" }, "geometry": { "type": "Point", "coordinates": [ 30.751999794961119, 27.593168375315482 ] } },
{ "type": "Feature", "properties": { "fid": 581, "geonamesid": null, "name": "Kafr Aboù Magzàléh", "aka": null, "position": null, "mf_name": null }, "geometry": { "type": "Point", "coordinates": [ 32.686530087328869, 25.744992287928071 ] } },
{ "type": "Feature", "properties": { "fid": 583, "geonamesid": 347292, "name": "Tamâ", "aka": null, "position": true, "mf_name": "Toma" }, "geometry": { "type": "Point", "coordinates": [ 31.436957442073538, 26.908603023054905 ] } },
{ "type": "Feature", "properties": { "fid": 585, "geonamesid": null, "name": "El Gézirìéh", "aka": null, "position": null, "mf_name": null }, "geometry": { "type": "Point", "coordinates": [ 32.314239347758054, 26.214013711575411 ] } },
{ "type": "Feature", "properties": { "fid": 586, "geonamesid": null, "name": "El Menàïcéh", "aka": null, "position": null, "mf_name": null }, "geometry": { "type": "Point", "coordinates": [ 31.988050636940997, 26.268680577039955 ] } },
{ "type": "Feature", "properties": { "fid": 587, "geonamesid": 361325, "name": "El Fehéinéh", "aka": null, "position": true, "mf_name": "El Fiama" }, "geometry": { "type": "Point", "coordinates": [ 31.236381356152158, 27.221297658933906 ] } },
{ "type": "Feature", "properties": { "fid": 588, "geonamesid": 360957, "name": "El Kawlì", "aka": null, "position": true, "mf_name": "El Kola" }, "geometry": { "type": "Point", "coordinates": [ 31.825719584469336, 26.510023830859854 ] } },
{ "type": "Feature", "properties": { "fid": 590, "geonamesid": null, "name": "Sogara el Gawàlì", "aka": null, "position": true, "mf_name": "Sokkara" }, "geometry": { "type": "Point", "coordinates": [ 31.027446146147856, 27.26071478687491 ] } },
{ "type": "Feature", "properties": { "fid": 592, "geonamesid": 351263, "name": "Nawàïe el Abgal", "aka": null, "position": null, "mf_name": null }, "geometry": { "type": "Point", "coordinates": [ 30.773543226838033, 27.799195037417249 ] } },
{ "type": "Feature", "properties": { "fid": 593, "geonamesid": null, "name": "Aboù Zabar", "aka": null, "position": null, "mf_name": null }, "geometry": { "type": "Point", "coordinates": [ 32.22946747773674, 26.266546550184287 ] } },
{ "type": "Feature", "properties": { "fid": 595, "geonamesid": null, "name": "Bénì Mour", "aka": null, "position": true, "mf_name": "Beni Mor" }, "geometry": { "type": "Point", "coordinates": [ 31.195104510770701, 27.22278336698362 ] } },
{ "type": "Feature", "properties": { "fid": 596, "geonamesid": null, "name": "EL Harìdì", "aka": null, "position": null, "mf_name": null }, "geometry": { "type": "Point", "coordinates": [ 32.667111992257389, 26.200198649825019 ] } },
{ "type": "Feature", "properties": { "fid": 597, "geonamesid": 349732, "name": "Selloȗhà", "aka": null, "position": null, "mf_name": null }, "geometry": { "type": "Point", "coordinates": [ 32.940130063514268, 24.716206348828226 ] } },
{ "type": "Feature", "properties": { "fid": 601, "geonamesid": null, "name": "El Qalia", "aka": null, "position": null, "mf_name": null }, "geometry": { "type": "Point", "coordinates": [ 32.924407405851824, 24.370009752561415 ] } },
{ "type": "Feature", "properties": { "fid": 603, "geonamesid": null, "name": "N. Berchéh", "aka": null, "position": null, "mf_name": null }, "geometry": { "type": "Point", "coordinates": [ 30.89556914043721, 27.748298164731477 ] } },
{ "type": "Feature", "properties": { "fid": 604, "geonamesid": null, "name": "Harageh", "aka": null, "position": null, "mf_name": null }, "geometry": { "type": "Point", "coordinates": [ 32.151007236532145, 26.214957172478254 ] } },
{ "type": "Feature", "properties": { "fid": 609, "geonamesid": null, "name": "Kafr", "aka": null, "position": null, "mf_name": null }, "geometry": { "type": "Point", "coordinates": [ 32.608723457018606, 26.186982947669765 ] } },
{ "type": "Feature", "properties": { "fid": 610, "geonamesid": null, "name": "Nezlet Aboù Ioùeef", "aka": null, "position": null, "mf_name": null }, "geometry": { "type": "Point", "coordinates": [ 31.520008312718158, 26.867233415289462 ] } },
{ "type": "Feature", "properties": { "fid": 611, "geonamesid": null, "name": "Dèir el Qohbeh", "aka": null, "position": null, "mf_name": null }, "geometry": { "type": "Point", "coordinates": [ 32.890183043688218, 24.109172244411809 ] } },
{ "type": "Feature", "properties": { "fid": 612, "geonamesid": null, "name": "Arbaïn", "aka": null, "position": null, "mf_name": null }, "geometry": { "type": "Point", "coordinates": [ 31.42459952836311, 26.993974916680461 ] } },
{ "type": "Feature", "properties": { "fid": 613, "geonamesid": null, "name": "El Tannàb", "aka": null, "position": true, "mf_name": "Naga El Attab" }, "geometry": { "type": "Point", "coordinates": [ 32.877474506606092, 24.851070403288016 ] } },
{ "type": "Feature", "properties": { "fid": 614, "geonamesid": null, "name": "El Màl Hòrr", "aka": null, "position": null, "mf_name": null }, "geometry": { "type": "Point", "coordinates": [ 31.991048128454477, 26.356885821739425 ] } },
{ "type": "Feature", "properties": { "fid": 623, "geonamesid": null, "name": "Mahân", "aka": null, "position": null, "mf_name": null }, "geometry": { "type": "Point", "coordinates": [ 32.418464793919313, 26.237759810788795 ] } },
{ "type": "Feature", "properties": { "fid": 626, "geonamesid": 360747, "name": "El Marâchì", "aka": null, "position": null, "mf_name": null }, "geometry": { "type": "Point", "coordinates": [ 32.531475380923126, 26.194232981322752 ] } },
{ "type": "Feature", "properties": { "fid": 628, "geonamesid": null, "name": "Géràdàt", "aka": null, "position": true, "mf_name": "El Gebeirat" }, "geometry": { "type": "Point", "coordinates": [ 31.402130601184808, 26.746518137149742 ] } },
{ "type": "Feature", "properties": { "fid": 630, "geonamesid": null, "name": "Nahieh", "aka": null, "position": null, "mf_name": null }, "geometry": { "type": "Point", "coordinates": [ 32.920054125839215, 24.288153158109868 ] } },
{ "type": "Feature", "properties": { "fid": 633, "geonamesid": null, "name": "Mìt Qelfa", "aka": null, "position": null, "mf_name": null }, "geometry": { "type": "Point", "coordinates": [ 31.668594260169439, 26.568042903582139 ] } },
{ "type": "Feature", "properties": { "fid": 634, "geonamesid": null, "name": "El Gàzìéh", "aka": null, "position": null, "mf_name": null }, "geometry": { "type": "Point", "coordinates": [ 32.465163935476539, 26.215829367360612 ] } },
{ "type": "Feature", "properties": { "fid": 639, "geonamesid": 359996, "name": "Oùn Allah", "aka": null, "position": true, "mf_name": "El Sheikh Onalla" }, "geometry": { "type": "Point", "coordinates": [ 30.831806481823133, 27.418086224389995 ] } },
{ "type": "Feature", "properties": { "fid": 640, "geonamesid": null, "name": "Nezlet Hammoùdéh", "aka": null, "position": null, "mf_name": null }, "geometry": { "type": "Point", "coordinates": [ 31.393230928320953, 27.033951353988527 ] } },
{ "type": "Feature", "properties": { "fid": 641, "geonamesid": null, "name": "El Hawàtah", "aka": null, "position": true, "mf_name": "El Hawata" }, "geometry": { "type": "Point", "coordinates": [ 30.850357232489603, 27.585804295806057 ] } },
{ "type": "Feature", "properties": { "fid": 644, "geonamesid": null, "name": "Ramàdì", "aka": null, "position": null, "mf_name": null }, "geometry": { "type": "Point", "coordinates": [ 32.921015848181675, 24.747408469140804 ] } },
{ "type": "Feature", "properties": { "fid": 650, "geonamesid": null, "name": "El Bàat", "aka": null, "position": null, "mf_name": null }, "geometry": { "type": "Point", "coordinates": [ 32.751039467473319, 25.094577838242042 ] } },
{ "type": "Feature", "properties": { "fid": 652, "geonamesid": null, "name": "Qalàah", "aka": null, "position": null, "mf_name": null }, "geometry": { "type": "Point", "coordinates": [ 32.896940915106981, 24.811671627923161 ] } },
{ "type": "Feature", "properties": { "fid": 661, "geonamesid": 352951, "name": "Melàwi el Arìch", "aka": null, "position": true, "mf_name": "Mallawi" }, "geometry": { "type": "Point", "coordinates": [ 30.847280076147904, 27.730223282018308 ] } },
{ "type": "Feature", "properties": { "fid": 663, "geonamesid": null, "name": "El Mazàléh", "aka": null, "position": null, "mf_name": null }, "geometry": { "type": "Point", "coordinates": [ 32.747169792376731, 25.131863244457541 ] } },
{ "type": "Feature", "properties": { "fid": 665, "geonamesid": null, "name": "Aboù Kilgàn", "aka": null, "position": null, "mf_name": null }, "geometry": { "type": "Point", "coordinates": [ 32.476591333721856, 25.552993944052016 ] } },
{ "type": "Feature", "properties": { "fid": 670, "geonamesid": 355635, "name": "Edfou", "aka": "Apollinopolis Magna", "position": true, "mf_name": "Edfu" }, "geometry": { "type": "Point", "coordinates": [ 32.877423609428163, 24.972732316838375 ] } },
{ "type": "Feature", "properties": { "fid": 673, "geonamesid": null, "name": "Nezlet Bàgòganà", "aka": null, "position": null, "mf_name": null }, "geometry": { "type": "Point", "coordinates": [ 31.121290102993299, 27.24342003727844 ] } },
{ "type": "Feature", "properties": { "fid": 679, "geonamesid": null, "name": "El Atieh", "aka": null, "position": null, "mf_name": null }, "geometry": { "type": "Point", "coordinates": [ 32.601125640660065, 25.645373586078549 ] } },
{ "type": "Feature", "properties": { "fid": 680, "geonamesid": 350957, "name": "El Raqabéh", "aka": null, "position": true, "mf_name": "El Raqaba" }, "geometry": { "type": "Point", "coordinates": [ 32.887711012494549, 24.40812863191514 ] } },
{ "type": "Feature", "properties": { "fid": 686, "geonamesid": null, "name": "Nahiet Abou Koreib", "aka": null, "position": null, "mf_name": null }, "geometry": { "type": "Point", "coordinates": [ 32.031893062004734, 26.294423604630605 ] } },
{ "type": "Feature", "properties": { "fid": 687, "geonamesid": 351098, "name": "Qalanech", "aka": null, "position": null, "mf_name": null }, "geometry": { "type": "Point", "coordinates": [ 30.852266724081822, 27.519280186531418 ] } },
{ "type": "Feature", "properties": { "fid": 690, "geonamesid": null, "name": "El Abdlìéh", "aka": null, "position": null, "mf_name": null }, "geometry": { "type": "Point", "coordinates": [ 32.575397285887071, 26.250546542039853 ] } },
{ "type": "Feature", "properties": { "fid": 691, "geonamesid": null, "name": "Tell Biàdìéh", "aka": null, "position": true, "mf_name": "El Baiadia" }, "geometry": { "type": "Point", "coordinates": [ 31.456793697222732, 26.950305874686503 ] } },
{ "type": "Feature", "properties": { "fid": 693, "geonamesid": null, "name": "El Akdar", "aka": null, "position": null, "mf_name": null }, "geometry": { "type": "Point", "coordinates": [ 31.479435418728205, 26.605940586240685 ] } },
{ "type": "Feature", "properties": { "fid": 698, "geonamesid": null, "name": "Nezleẗ Chéik Ahmed", "aka": null, "position": null, "mf_name": null }, "geometry": { "type": "Point", "coordinates": [ 31.321072888512802, 27.095123424797247 ] } },
{ "type": "Feature", "properties": { "fid": 701, "geonamesid": null, "name": "Toùk", "aka": null, "position": true, "mf_name": "Naga Tukh" }, "geometry": { "type": "Point", "coordinates": [ 31.823583643807059, 26.403469994287509 ] } },
{ "type": "Feature", "properties": { "fid": 704, "geonamesid": null, "name": "El Baràgìt", "aka": null, "position": true, "mf_name": "El Badari" }, "geometry": { "type": "Point", "coordinates": [ 31.414055521695261, 26.993579516430419 ] } },
{ "type": "Feature", "properties": { "fid": 705, "geonamesid": 357667, "name": "Abouchaïn", "aka": null, "position": null, "mf_name": null }, "geometry": { "type": "Point", "coordinates": [ 32.678386292963751, 25.759384777706849 ] } },
{ "type": "Feature", "properties": { "fid": 706, "geonamesid": null, "name": "Salàmoùn", "aka": null, "position": true, "mf_name": "Salamun" }, "geometry": { "type": "Point", "coordinates": [ 31.429195429189068, 26.913831601178476 ] } },
{ "type": "Feature", "properties": { "fid": 709, "geonamesid": null, "name": "Nezlet el Haridéh", "aka": null, "position": true, "mf_name": "Nezlet el Haridi" }, "geometry": { "type": "Point", "coordinates": [ 31.553426241813636, 26.770711716876107 ] } },
{ "type": "Feature", "properties": { "fid": 712, "geonamesid": null, "name": "El Hargeh", "aka": null, "position": null, "mf_name": null }, "geometry": { "type": "Point", "coordinates": [ 31.938794257236228, 26.341111605580476 ] } },
{ "type": "Feature", "properties": { "fid": 714, "geonamesid": 360091, "name": "Rezqat", "aka": null, "position": true, "mf_name": "El Rizeiqat" }, "geometry": { "type": "Point", "coordinates": [ 32.466096989909069, 25.595683683647884 ] } },
{ "type": "Feature", "properties": { "fid": 716, "geonamesid": null, "name": "Weled", "aka": null, "position": null, "mf_name": null }, "geometry": { "type": "Point", "coordinates": [ 32.621535580987768, 26.185925309111841 ] } },
{ "type": "Feature", "properties": { "fid": 725, "geonamesid": null, "name": "Karin", "aka": null, "position": null, "mf_name": null }, "geometry": { "type": "Point", "coordinates": [ 32.908255132917589, 24.764091540526284 ] } },
{ "type": "Feature", "properties": { "fid": 728, "geonamesid": null, "name": "Kafr", "aka": null, "position": null, "mf_name": null }, "geometry": { "type": "Point", "coordinates": [ 32.689021403866455, 25.750853506206528 ] } },
{ "type": "Feature", "properties": { "fid": 730, "geonamesid": 358873, "name": "Bénì Zéid", "aka": null, "position": true, "mf_name": "Beni Zeid Buq" }, "geometry": { "type": "Point", "coordinates": [ 30.863958116143834, 27.406046759590247 ] } },
{ "type": "Feature", "properties": { "fid": 731, "geonamesid": null, "name": "El Rìféh", "aka": null, "position": null, "mf_name": null }, "geometry": { "type": "Point", "coordinates": [ 31.680105760041133, 26.453009247165451 ] } },
{ "type": "Feature", "properties": { "fid": 733, "geonamesid": null, "name": "Oûmm Bâràqàb", "aka": null, "position": true, "mf_name": "El Bugga Ghard" }, "geometry": { "type": "Point", "coordinates": [ 32.908154602493163, 23.786858278730669 ] } },
{ "type": "Feature", "properties": { "fid": 735, "geonamesid": null, "name": "Ceik el Haridi", "aka": null, "position": null, "mf_name": null }, "geometry": { "type": "Point", "coordinates": [ 31.738728894619616, 26.596893143684344 ] } },
{ "type": "Feature", "properties": { "fid": 736, "geonamesid": null, "name": "El Wagàq", "aka": null, "position": null, "mf_name": null }, "geometry": { "type": "Point", "coordinates": [ 30.968253881583877, 27.22566684400671 ] } },
{ "type": "Feature", "properties": { "fid": 737, "geonamesid": 347206, "name": "Toùnéh", "aka": null, "position": null, "mf_name": null }, "geometry": { "type": "Point", "coordinates": [ 30.741070644669811, 27.774519805298294 ] } },
{ "type": "Feature", "properties": { "fid": 739, "geonamesid": null, "name": "El Béneàt", "aka": null, "position": null, "mf_name": null }, "geometry": { "type": "Point", "coordinates": [ 32.861282596977439, 24.820982140060181 ] } },
{ "type": "Feature", "properties": { "fid": 747, "geonamesid": null, "name": "K. Garfi", "aka": null, "position": true, "mf_name": "El Ahaiwa Gharb" }, "geometry": { "type": "Point", "coordinates": [ 31.807304013755633, 26.434898037030099 ] } },
{ "type": "Feature", "properties": { "fid": 750, "geonamesid": null, "name": "El Bìàdi", "aka": null, "position": null, "mf_name": null }, "geometry": { "type": "Point", "coordinates": [ 31.903263375212234, 26.348122982577046 ] } },
{ "type": "Feature", "properties": { "fid": 752, "geonamesid": null, "name": "Abou Arìf", "aka": null, "position": true, "mf_name": "Naga Abu Isa" }, "geometry": { "type": "Point", "coordinates": [ 32.877137578729098, 24.140376903692939 ] } },
{ "type": "Feature", "properties": { "fid": 754, "geonamesid": null, "name": "K. Mazi", "aka": null, "position": null, "mf_name": null }, "geometry": { "type": "Point", "coordinates": [ 32.132708444622693, 26.297378963358511 ] } },
{ "type": "Feature", "properties": { "fid": 755, "geonamesid": null, "name": "Aloùïn", "aka": "355563", "position": true, "mf_name": "Elwan" }, "geometry": { "type": "Point", "coordinates": [ 31.098394401448765, 27.198149116532488 ] } },
{ "type": "Feature", "properties": { "fid": 760, "geonamesid": null, "name": "Chéïk Ahmed", "aka": null, "position": true, "mf_name": "Nazlet Hamed" }, "geometry": { "type": "Point", "coordinates": [ 31.431254541239998, 26.778816493330066 ] } },
{ "type": "Feature", "properties": { "fid": 773, "geonamesid": null, "name": "EL Aqàdméh", "aka": null, "position": true, "mf_name": "El Aqadma" }, "geometry": { "type": "Point", "coordinates": [ 31.255213177654863, 27.021867744722744 ] } },
{ "type": "Feature", "properties": { "fid": 775, "geonamesid": null, "name": "El Deir", "aka": null, "position": null, "mf_name": null }, "geometry": { "type": "Point", "coordinates": [ 31.330414534738903, 26.905561449056208 ] } },
{ "type": "Feature", "properties": { "fid": 776, "geonamesid": 350422, "name": "Qoùs", "aka": null, "position": true, "mf_name": "Qus" }, "geometry": { "type": "Point", "coordinates": [ 32.766935535893381, 25.912077892755022 ] } },
{ "type": "Feature", "properties": { "fid": 778, "geonamesid": null, "name": "Kafr", "aka": null, "position": null, "mf_name": null }, "geometry": { "type": "Point", "coordinates": [ 32.334419759378129, 26.185247166499437 ] } },
{ "type": "Feature", "properties": { "fid": 779, "geonamesid": 359677, "name": "El Téiràh", "aka": null, "position": true, "mf_name": "El Ter'a" }, "geometry": { "type": "Point", "coordinates": [ 32.653604998231202, 25.207399692286376 ] } },
{ "type": "Feature", "properties": { "fid": 781, "geonamesid": null, "name": "Bécéfalàq", "aka": null, "position": null, "mf_name": null }, "geometry": { "type": "Point", "coordinates": [ 31.663891357051408, 26.60356361653713 ] } },
{ "type": "Feature", "properties": { "fid": 783, "geonamesid": null, "name": "El Aràbehéh", "aka": null, "position": null, "mf_name": null }, "geometry": { "type": "Point", "coordinates": [ 32.761481208372679, 25.948274984446694 ] } },
{ "type": "Feature", "properties": { "fid": 784, "geonamesid": 12108539, "name": "Aràb el Atoùàlì", "aka": null, "position": true, "mf_name": "Et Ataula" }, "geometry": { "type": "Point", "coordinates": [ 31.214741695427918, 27.23977211555221 ] } },
{ "type": "Feature", "properties": { "fid": 796, "geonamesid": null, "name": "Nàhìéh Hagàzì", "aka": null, "position": null, "mf_name": null }, "geometry": { "type": "Point", "coordinates": [ 32.813585840001728, 25.826219625696186 ] } },
{ "type": "Feature", "properties": { "fid": 797, "geonamesid": null, "name": "Koùm", "aka": null, "position": true, "mf_name": "Kom el Shahid" }, "geometry": { "type": "Point", "coordinates": [ 30.914234989319603, 27.370487233823635 ] } },
{ "type": "Feature", "properties": { "fid": 800, "geonamesid": 358455, "name": "Dalgeh", "aka": null, "position": true, "mf_name": "Dalga" }, "geometry": { "type": "Point", "coordinates": [ 30.700584335746118, 27.641517671096583 ] } },
{ "type": "Feature", "properties": { "fid": 803, "geonamesid": null, "name": "Ghebâlìéh", "aka": null, "position": null, "mf_name": null }, "geometry": { "type": "Point", "coordinates": [ 32.321373010690017, 26.170349645243036 ] } },
{ "type": "Feature", "properties": { "fid": 806, "geonamesid": null, "name": "Sahéràli", "aka": null, "position": null, "mf_name": null }, "geometry": { "type": "Point", "coordinates": [ 32.542543819107316, 25.233749424347785 ] } },
{ "type": "Feature", "properties": { "fid": 812, "geonamesid": null, "name": "N. El Hàgg Mansoùr", "aka": null, "position": null, "mf_name": null }, "geometry": { "type": "Point", "coordinates": [ 30.813774106330108, 27.526972254962693 ] } },
{ "type": "Feature", "properties": { "fid": 814, "geonamesid": null, "name": "Chammâh ", "aka": null, "position": true, "mf_name": "Naga el Saha" }, "geometry": { "type": "Point", "coordinates": [ 32.895752734638805, 24.130266948328181 ] } },
{ "type": "Feature", "properties": { "fid": 815, "geonamesid": 351047, "name": "Nédéibéh", "aka": null, "position": null, "mf_name": null }, "geometry": { "type": "Point", "coordinates": [ 31.709065363336261, 26.582835551020292 ] } },
{ "type": "Feature", "properties": { "fid": 817, "geonamesid": null, "name": "Koum Geni", "aka": null, "position": null, "mf_name": null }, "geometry": { "type": "Point", "coordinates": [ 32.130885193971665, 26.261750698847344 ] } },
{ "type": "Feature", "properties": { "fid": 818, "geonamesid": null, "name": "Nezleẗ Mégrìs", "aka": null, "position": null, "mf_name": null }, "geometry": { "type": "Point", "coordinates": [ 31.387945717715883, 26.982081273662274 ] } },
{ "type": "Feature", "properties": { "fid": 826, "geonamesid": null, "name": "Koum el Hacànàt", "aka": null, "position": null, "mf_name": null }, "geometry": { "type": "Point", "coordinates": [ 32.843873754365603, 25.003754525850635 ] } },
{ "type": "Feature", "properties": { "fid": 830, "geonamesid": null, "name": "Nezlet el  Aziz", "aka": null, "position": null, "mf_name": null }, "geometry": { "type": "Point", "coordinates": [ 31.470470990208376, 26.96958688472203 ] } },
{ "type": "Feature", "properties": { "fid": 831, "geonamesid": null, "name": "Koùm el Aràb", "aka": null, "position": true, "mf_name": "Kom el Arab" }, "geometry": { "type": "Point", "coordinates": [ 31.460139824307522, 26.882004357606995 ] } },
{ "type": "Feature", "properties": { "fid": 832, "geonamesid": null, "name": "El Ràfa", "aka": null, "position": null, "mf_name": null }, "geometry": { "type": "Point", "coordinates": [ 31.503751061083982, 26.673019972358169 ] } },
{ "type": "Feature", "properties": { "fid": 834, "geonamesid": null, "name": "El Reehàidéh", "aka": null, "position": null, "mf_name": null }, "geometry": { "type": "Point", "coordinates": [ 30.903752499213056, 27.792522556981314 ] } },
{ "type": "Feature", "properties": { "fid": 838, "geonamesid": null, "name": "Chemt el Ouàh", "aka": null, "position": true, "mf_name": "Remal el Elwa" }, "geometry": { "type": "Point", "coordinates": [ 32.860700251689686, 23.93876744392313 ] } },
{ "type": "Feature", "properties": { "fid": 839, "geonamesid": null, "name": "Mechaoùiéh", "aka": null, "position": null, "mf_name": null }, "geometry": { "type": "Point", "coordinates": [ 31.941160927754442, 26.276023160220525 ] } },
{ "type": "Feature", "properties": { "fid": 840, "geonamesid": 362971, "name": "Abnoùd", "aka": null, "position": true, "mf_name": "Abnud" }, "geometry": { "type": "Point", "coordinates": [ 32.786370971018627, 26.049786375389573 ] } },
{ "type": "Feature", "properties": { "fid": 841, "geonamesid": 360561, "name": "El Qamoùléh", "aka": null, "position": true, "mf_name": "El Qibli Qamula" }, "geometry": { "type": "Point", "coordinates": [ 32.728161110347514, 25.787527556190213 ] } },
{ "type": "Feature", "properties": { "fid": 843, "geonamesid": null, "name": "El Araqìéh", "aka": null, "position": null, "mf_name": null }, "geometry": { "type": "Point", "coordinates": [ 32.758354678261647, 25.959070180892933 ] } },
{ "type": "Feature", "properties": { "fid": 846, "geonamesid": null, "name": "El Ezbéh", "aka": null, "position": null, "mf_name": null }, "geometry": { "type": "Point", "coordinates": [ 31.558916924867859, 26.708902967578197 ] } },
{ "type": "Feature", "properties": { "fid": 851, "geonamesid": null, "name": "Aboù Koùrs", "aka": null, "position": null, "mf_name": null }, "geometry": { "type": "Point", "coordinates": [ 31.253342182462237, 26.96814143257324 ] } },
{ "type": "Feature", "properties": { "fid": 852, "geonamesid": null, "name": "El Dàri", "aka": null, "position": null, "mf_name": null }, "geometry": { "type": "Point", "coordinates": [ 32.066150507805347, 26.244036943630807 ] } },
{ "type": "Feature", "properties": { "fid": 857, "geonamesid": null, "name": "El 'Kerbéh", "aka": null, "position": null, "mf_name": null }, "geometry": { "type": "Point", "coordinates": [ 32.808079003651713, 26.129309357408758 ] } },
{ "type": "Feature", "properties": { "fid": 862, "geonamesid": null, "name": "El Tout", "aka": null, "position": null, "mf_name": null }, "geometry": { "type": "Point", "coordinates": [ 32.091281292215051, 26.272318680283838 ] } },
{ "type": "Feature", "properties": { "fid": 869, "geonamesid": null, "name": "Nàhìet Bolageh", "aka": null, "position": null, "mf_name": null }, "geometry": { "type": "Point", "coordinates": [ 31.379386375449155, 26.719457090539368 ] } },
{ "type": "Feature", "properties": { "fid": 875, "geonamesid": 362300, "name": "Aboù Qaltéh", "aka": null, "position": null, "mf_name": null }, "geometry": { "type": "Point", "coordinates": [ 30.745531233818767, 27.806483934915278 ] } },
{ "type": "Feature", "properties": { "fid": 879, "geonamesid": 359228, "name": "Bénì Ibràhìm", "aka": null, "position": true, "mf_name": "Beni Ibrahim" }, "geometry": { "type": "Point", "coordinates": [ 31.119680613563879, 27.308848948374628 ] } },
{ "type": "Feature", "properties": { "fid": 882, "geonamesid": null, "name": "El Sàhoùéh", "aka": null, "position": null, "mf_name": null }, "geometry": { "type": "Point", "coordinates": [ 31.816516554525606, 26.495622484277888 ] } },
{ "type": "Feature", "properties": { "fid": 887, "geonamesid": 360780, "name": "El Mandarah", "aka": null, "position": null, "mf_name": null }, "geometry": { "type": "Point", "coordinates": [ 30.843504652308017, 27.543078382991865 ] } },
{ "type": "Feature", "properties": { "fid": 888, "geonamesid": null, "name": "El Nabqah", "aka": null, "position": null, "mf_name": null }, "geometry": { "type": "Point", "coordinates": [ 32.498480010013509, 26.193740194113101 ] } },
{ "type": "Feature", "properties": { "fid": 889, "geonamesid": null, "name": "K. Aboù", "aka": null, "position": null, "mf_name": null }, "geometry": { "type": "Point", "coordinates": [ 31.791323267612096, 26.552596872776441 ] } },
{ "type": "Feature", "properties": { "fid": 891, "geonamesid": null, "name": "Aboù hàwàreb", "aka": null, "position": null, "mf_name": null }, "geometry": { "type": "Point", "coordinates": [ 32.912277546108982, 24.437989647932618 ] } },
{ "type": "Feature", "properties": { "fid": 894, "geonamesid": null, "name": "Nezleẗ Aboù Chéhìn", "aka": null, "position": null, "mf_name": null }, "geometry": { "type": "Point", "coordinates": [ 31.368858657418098, 27.06061283242202 ] } },
{ "type": "Feature", "properties": { "fid": 909, "geonamesid": 361538, "name": "Nefs el Achmoùnéïn", "aka": "Hermpolis", "position": true, "mf_name": "El Ashmunein" }, "geometry": { "type": "Point", "coordinates": [ 30.805845345160709, 27.77564813883561 ] } },
{ "type": "Feature", "properties": { "fid": 910, "geonamesid": null, "name": "Qàou el Kobara", "aka": null, "position": null, "mf_name": null }, "geometry": { "type": "Point", "coordinates": [ 31.615989040920081, 26.63532407414835 ] } },
{ "type": "Feature", "properties": { "fid": 920, "geonamesid": null, "name": "Kafr Abo§sah", "aka": null, "position": null, "mf_name": null }, "geometry": { "type": "Point", "coordinates": [ 32.629858931209192, 26.251998885002269 ] } },
{ "type": "Feature", "properties": { "fid": 921, "geonamesid": 359622, "name": "Aoùlad Amazì", "aka": null, "position": null, "mf_name": null }, "geometry": { "type": "Point", "coordinates": [ 31.832995873105112, 26.379612261850227 ] } },
{ "type": "Feature", "properties": { "fid": 923, "geonamesid": 350550, "name": "Qenéh", "aka": null, "position": null, "mf_name": null }, "geometry": { "type": "Point", "coordinates": [ 32.760115828739295, 26.174379268735265 ] } },
{ "type": "Feature", "properties": { "fid": 925, "geonamesid": 360736, "name": "El Masarah", "aka": null, "position": true, "mf_name": "El Macara" }, "geometry": { "type": "Point", "coordinates": [ 30.869835793472497, 27.704643334437907 ] } },
{ "type": "Feature", "properties": { "fid": 932, "geonamesid": null, "name": "EL Kitàb", "aka": null, "position": null, "mf_name": null }, "geometry": { "type": "Point", "coordinates": [ 32.858380965197981, 24.834700749668237 ] } },
{ "type": "Feature", "properties": { "fid": 933, "geonamesid": null, "name": "Nezleẗ Aoùlàd Hàïe", "aka": null, "position": null, "mf_name": null }, "geometry": { "type": "Point", "coordinates": [ 31.469982449161158, 26.938278428912575 ] } },
{ "type": "Feature", "properties": { "fid": 934, "geonamesid": 352913, "name": "Manfaloùt", "aka": null, "position": true, "mf_name": "Manfalut" }, "geometry": { "type": "Point", "coordinates": [ 30.974234954672163, 27.311860703795613 ] } },
{ "type": "Feature", "properties": { "fid": 937, "geonamesid": null, "name": "Kafr", "aka": null, "position": null, "mf_name": null }, "geometry": { "type": "Point", "coordinates": [ 32.097703379458238, 26.249597079083387 ] } },
{ "type": "Feature", "properties": { "fid": 942, "geonamesid": 359486, "name": "El Zàwïéh", "aka": null, "position": true, "mf_name": "El Zawia" }, "geometry": { "type": "Point", "coordinates": [ 31.217376847319212, 27.068853839032567 ] } },
{ "type": "Feature", "properties": { "fid": 943, "geonamesid": 347668, "name": "Denfiq", "aka": "Tafenis", "position": true, "mf_name": "Tefnis el Matana" }, "geometry": { "type": "Point", "coordinates": [ 32.526135730500016, 25.429554054810655 ] } },
{ "type": "Feature", "properties": { "fid": 945, "geonamesid": 349377, "name": "Senhoùr", "aka": null, "position": null, "mf_name": null }, "geometry": { "type": "Point", "coordinates": [ 32.757871651199508, 25.860586834731016 ] } },
{ "type": "Feature", "properties": { "fid": 947, "geonamesid": null, "name": "K. Anboùha", "aka": null, "position": true, "mf_name": "Kum Buha Dahari" }, "geometry": { "type": "Point", "coordinates": [ 30.820635058604974, 27.512160694920563 ] } },
{ "type": "Feature", "properties": { "fid": 950, "geonamesid": null, "name": "Omm el Koucour", "aka": null, "position": true, "mf_name": "Om el Qosur" }, "geometry": { "type": "Point", "coordinates": [ 30.899822285675878, 27.387078601971634 ] } },
{ "type": "Feature", "properties": { "fid": 954, "geonamesid": null, "name": "Koùm Eddoûéïr", "aka": null, "position": null, "mf_name": null }, "geometry": { "type": "Point", "coordinates": [ 31.359763879028701, 26.764799753161927 ] } },
{ "type": "Feature", "properties": { "fid": 955, "geonamesid": null, "name": "N. Chéik Abbàs", "aka": null, "position": null, "mf_name": null }, "geometry": { "type": "Point", "coordinates": [ 30.695689974517272, 27.654469538014812 ] } },
{ "type": "Feature", "properties": { "fid": 958, "geonamesid": null, "name": "Kafr", "aka": null, "position": null, "mf_name": null }, "geometry": { "type": "Point", "coordinates": [ 31.691933310489901, 26.56671048693806 ] } },
{ "type": "Feature", "properties": { "fid": 959, "geonamesid": null, "name": "Décoùr", "aka": null, "position": null, "mf_name": null }, "geometry": { "type": "Point", "coordinates": [ 32.523487947482721, 25.586888088238432 ] } },
{ "type": "Feature", "properties": { "fid": 962, "geonamesid": 349665, "name": "Sanàboù", "aka": null, "position": true, "mf_name": "Sanabu" }, "geometry": { "type": "Point", "coordinates": [ 30.787884833349253, 27.493086239402324 ] } },
{ "type": "Feature", "properties": { "fid": 964, "geonamesid": null, "name": "Hawàichéh", "aka": null, "position": null, "mf_name": null }, "geometry": { "type": "Point", "coordinates": [ 31.745499797416024, 26.575409718952461 ] } },
{ "type": "Feature", "properties": { "fid": 965, "geonamesid": null, "name": "El Fwà", "aka": null, "position": null, "mf_name": null }, "geometry": { "type": "Point", "coordinates": [ 32.764363657837592, 25.938060026299436 ] } },
{ "type": "Feature", "properties": { "fid": 969, "geonamesid": null, "name": "Bàroùd", "aka": null, "position": null, "mf_name": null }, "geometry": { "type": "Point", "coordinates": [ 32.756329974820694, 25.989650563665723 ] } },
{ "type": "Feature", "properties": { "fid": 975, "geonamesid": null, "name": "El Loùàqi", "aka": null, "position": null, "mf_name": null }, "geometry": { "type": "Point", "coordinates": [ 32.300314041244981, 26.210760740600403 ] } },
{ "type": "Feature", "properties": { "fid": 981, "geonamesid": 353472, "name": "Koùm Méréh", "aka": null, "position": null, "mf_name": null }, "geometry": { "type": "Point", "coordinates": [ 32.60974018944075, 25.197451186913113 ] } },
{ "type": "Feature", "properties": { "fid": 988, "geonamesid": null, "name": "El Bìàdìéh", "aka": null, "position": true, "mf_name": "El Biadia bil Nazer" }, "geometry": { "type": "Point", "coordinates": [ 31.792651032455144, 26.528910679204635 ] } },
{ "type": "Feature", "properties": { "fid": 989, "geonamesid": null, "name": "Nezlet Hellàséh", "aka": null, "position": null, "mf_name": null }, "geometry": { "type": "Point", "coordinates": [ 31.469106011853587, 26.974496321018574 ] } },
{ "type": "Feature", "properties": { "fid": 990, "geonamesid": null, "name": "Nezleẗ Zéïn Abdelletìf", "aka": null, "position": null, "mf_name": null }, "geometry": { "type": "Point", "coordinates": [ 31.349881098501598, 27.089558984037684 ] } },
{ "type": "Feature", "properties": { "fid": 994, "geonamesid": 356933, "name": "Farchoùt", "aka": null, "position": null, "mf_name": null }, "geometry": { "type": "Point", "coordinates": [ 32.237438585012448, 26.239225012536735 ] } },
{ "type": "Feature", "properties": { "fid": 996, "geonamesid": null, "name": "El Héredìéh", "aka": null, "position": null, "mf_name": null }, "geometry": { "type": "Point", "coordinates": [ 31.463536484248429, 26.730248552792425 ] } },
{ "type": "Feature", "properties": { "fid": 998, "geonamesid": 359318, "name": "Balasfoûrah", "aka": null, "position": true, "mf_name": "Balasfara" }, "geometry": { "type": "Point", "coordinates": [ 31.738773812440034, 26.52380791666938 ] } },
{ "type": "Feature", "properties": { "fid": 999, "geonamesid": null, "name": "El hadìd", "aka": null, "position": null, "mf_name": null }, "geometry": { "type": "Point", "coordinates": [ 32.755128780238323, 25.126412709287937 ] } },
{ "type": "Feature", "properties": { "fid": 1000, "geonamesid": null, "name": "Aboù Sorrah", "aka": null, "position": null, "mf_name": null }, "geometry": { "type": "Point", "coordinates": [ 31.319066336212671, 27.161143521631459 ] } },
{ "type": "Feature", "properties": { "fid": 1004, "geonamesid": null, "name": "K. Ballâs", "aka": null, "position": null, "mf_name": null }, "geometry": { "type": "Point", "coordinates": [ 32.534128834802956, 25.288826388714149 ] } },
{ "type": "Feature", "properties": { "fid": 1006, "geonamesid": null, "name": "Aoùlàd Sìràg", "aka": null, "position": true, "mf_name": "Aulad Sirag" }, "geometry": { "type": "Point", "coordinates": [ 31.235864588134863, 27.173981087350302 ] } },
{ "type": "Feature", "properties": { "fid": 1008, "geonamesid": null, "name": "Gemàçéh", "aka": null, "position": true, "mf_name": "El Gamasa" }, "geometry": { "type": "Point", "coordinates": [ 31.250171520782729, 27.189076862890314 ] } },
{ "type": "Feature", "properties": { "fid": 1011, "geonamesid": null, "name": "Salìd", "aka": null, "position": null, "mf_name": null }, "geometry": { "type": "Point", "coordinates": [ 32.282790764436058, 26.272487900606926 ] } },
{ "type": "Feature", "properties": { "fid": 1015, "geonamesid": null, "name": "Damamel", "aka": null, "position": null, "mf_name": null }, "geometry": { "type": "Point", "coordinates": [ 32.74152986881964, 25.827159577000533 ] } },
{ "type": "Feature", "properties": { "fid": 1021, "geonamesid": null, "name": "El Caserne", "aka": null, "position": null, "mf_name": null }, "geometry": { "type": "Point", "coordinates": [ 32.49021764945261, 26.187607375648589 ] } },
{ "type": "Feature", "properties": { "fid": 1025, "geonamesid": null, "name": "El Arabeh", "aka": null, "position": null, "mf_name": null }, "geometry": { "type": "Point", "coordinates": [ 32.681833213955045, 25.768412134585546 ] } },
{ "type": "Feature", "properties": { "fid": 1035, "geonamesid": null, "name": "Nezlet Bakoùàg", "aka": null, "position": null, "mf_name": null }, "geometry": { "type": "Point", "coordinates": [ 31.527719721186021, 26.799551453738196 ] } },
{ "type": "Feature", "properties": { "fid": 1037, "geonamesid": null, "name": "Chéik Ibràhìm", "aka": null, "position": true, "mf_name": "Naga el Sheik Ibrahim" }, "geometry": { "type": "Point", "coordinates": [ 32.917667674380269, 24.39524236483593 ] } },
{ "type": "Feature", "properties": { "fid": 1038, "geonamesid": null, "name": "Arah Azài", "aka": null, "position": null, "mf_name": null }, "geometry": { "type": "Point", "coordinates": [ 30.990878709314416, 27.1787368957173 ] } },
{ "type": "Feature", "properties": { "fid": 1040, "geonamesid": null, "name": "Chaslìéh", "aka": null, "position": null, "mf_name": null }, "geometry": { "type": "Point", "coordinates": [ 32.768950015740593, 26.085959892707287 ] } },
{ "type": "Feature", "properties": { "fid": 1043, "geonamesid": null, "name": "El Dowàh", "aka": null, "position": true, "mf_name": "Nazlet el Diweit" }, "geometry": { "type": "Point", "coordinates": [ 31.360922115599685, 26.811905132104425 ] } },
{ "type": "Feature", "properties": { "fid": 1047, "geonamesid": null, "name": "Erregaieh", "aka": null, "position": null, "mf_name": null }, "geometry": { "type": "Point", "coordinates": [ 32.604103308276443, 25.21036081890356 ] } },
{ "type": "Feature", "properties": { "fid": 1051, "geonamesid": null, "name": "El Deremàt", "aka": null, "position": null, "mf_name": null }, "geometry": { "type": "Point", "coordinates": [ 32.749773795600589, 25.918569226953245 ] } },
{ "type": "Feature", "properties": { "fid": 1053, "geonamesid": null, "name": "Nezlet Sàharig", "aka": null, "position": true, "mf_name": "Naga Zireiq" }, "geometry": { "type": "Point", "coordinates": [ 31.441413453281655, 26.968038543135908 ] } },
{ "type": "Feature", "properties": { "fid": 1056, "geonamesid": null, "name": "El Hamzéh", "aka": null, "position": null, "mf_name": null }, "geometry": { "type": "Point", "coordinates": [ 32.771754129997987, 25.923032748510973 ] } },
{ "type": "Feature", "properties": { "fid": 1065, "geonamesid": null, "name": "Kafr", "aka": null, "position": null, "mf_name": null }, "geometry": { "type": "Point", "coordinates": [ 32.759418193343187, 25.814637685108369 ] } },
{ "type": "Feature", "properties": { "fid": 1068, "geonamesid": null, "name": "N. El Zàràbi", "aka": null, "position": null, "mf_name": null }, "geometry": { "type": "Point", "coordinates": [ 30.840553658417114, 27.441262288352515 ] } },
{ "type": "Feature", "properties": { "fid": 1073, "geonamesid": null, "name": "Dekrian", "aka": null, "position": null, "mf_name": null }, "geometry": { "type": "Point", "coordinates": [ 31.334333622822864, 26.881153553854642 ] } },
{ "type": "Feature", "properties": { "fid": 1077, "geonamesid": null, "name": "Bahoùd", "aka": null, "position": true, "mf_name": "Naga el Barud" }, "geometry": { "type": "Point", "coordinates": [ 31.595455200655124, 26.718644073257284 ] } },
{ "type": "Feature", "properties": { "fid": 1078, "geonamesid": null, "name": "El Noùìrat", "aka": null, "position": true, "mf_name": "El Niweirat" }, "geometry": { "type": "Point", "coordinates": [ 31.819113954518016, 26.420468358098841 ] } },
{ "type": "Feature", "properties": { "fid": 1083, "geonamesid": null, "name": "El Dàwìeh", "aka": null, "position": null, "mf_name": null }, "geometry": { "type": "Point", "coordinates": [ 32.222857296223317, 26.269085567927291 ] } },
{ "type": "Feature", "properties": { "fid": 1086, "geonamesid": null, "name": "kafr", "aka": null, "position": null, "mf_name": null }, "geometry": { "type": "Point", "coordinates": [ 31.524658886258269, 26.539018606597711 ] } },
{ "type": "Feature", "properties": { "fid": 1087, "geonamesid": null, "name": "El Wàgàbàt", "aka": null, "position": null, "mf_name": null }, "geometry": { "type": "Point", "coordinates": [ 32.851674843922098, 24.833518123991276 ] } },
{ "type": "Feature", "properties": { "fid": 1089, "geonamesid": null, "name": "Kafr", "aka": null, "position": null, "mf_name": null }, "geometry": { "type": "Point", "coordinates": [ 31.753105381864827, 26.543666903575346 ] } },
{ "type": "Feature", "properties": { "fid": 1091, "geonamesid": null, "name": "El Halaoùéh", "aka": null, "position": null, "mf_name": null }, "geometry": { "type": "Point", "coordinates": [ 31.958967609189909, 26.226244071291294 ] } },
{ "type": "Feature", "properties": { "fid": 1096, "geonamesid": null, "name": "Chawkah", "aka": null, "position": null, "mf_name": null }, "geometry": { "type": "Point", "coordinates": [ 31.559112596984772, 26.578857159952438 ] } },
{ "type": "Feature", "properties": { "fid": 1099, "geonamesid": null, "name": "K. Ahmed", "aka": null, "position": null, "mf_name": null }, "geometry": { "type": "Point", "coordinates": [ 31.601613963527964, 26.638835492424796 ] } },
{ "type": "Feature", "properties": { "fid": 1100, "geonamesid": null, "name": "Naga Obeid", "aka": null, "position": null, "mf_name": null }, "geometry": { "type": "Point", "coordinates": [ 32.008361576777311, 26.2958533013988 ] } },
{ "type": "Feature", "properties": { "fid": 1104, "geonamesid": 361435, "name": "Beliameh", "aka": null, "position": null, "mf_name": null }, "geometry": { "type": "Point", "coordinates": [ 32.002751555794767, 26.302688753055232 ] } },
{ "type": "Feature", "properties": { "fid": 1105, "geonamesid": null, "name": "Aboù Diab", "aka": null, "position": null, "mf_name": null }, "geometry": { "type": "Point", "coordinates": [ 32.687658807483871, 25.790685463123399 ] } },
{ "type": "Feature", "properties": { "fid": 1106, "geonamesid": null, "name": "Nezlet el Merai", "aka": null, "position": null, "mf_name": null }, "geometry": { "type": "Point", "coordinates": [ 31.457349444731971, 26.953414232363215 ] } },
{ "type": "Feature", "properties": { "fid": 1110, "geonamesid": null, "name": "Déir", "aka": null, "position": null, "mf_name": null }, "geometry": { "type": "Point", "coordinates": [ 32.868707828122865, 24.270688368528955 ] } },
{ "type": "Feature", "properties": { "fid": 1115, "geonamesid": null, "name": "Nezlet Qoséir", "aka": null, "position": null, "mf_name": null }, "geometry": { "type": "Point", "coordinates": [ 30.877681622675496, 27.438952022434506 ] } },
{ "type": "Feature", "properties": { "fid": 1116, "geonamesid": null, "name": "El Kerdin", "aka": null, "position": null, "mf_name": null }, "geometry": { "type": "Point", "coordinates": [ 31.89045887195622, 26.311399824938409 ] } },
{ "type": "Feature", "properties": { "fid": 1117, "geonamesid": null, "name": "Gàriéh", "aka": null, "position": null, "mf_name": null }, "geometry": { "type": "Point", "coordinates": [ 32.531552798855479, 25.26399916110153 ] } },
{ "type": "Feature", "properties": { "fid": 1128, "geonamesid": 359616, "name": "Aoùlàd Kaòefiéh", "aka": null, "position": null, "mf_name": null }, "geometry": { "type": "Point", "coordinates": [ 32.075104529313428, 26.278302657192192 ] } },
{ "type": "Feature", "properties": { "fid": 1129, "geonamesid": null, "name": "N. Hemaïeh", "aka": null, "position": true, "mf_name": "Nezlet el Hema" }, "geometry": { "type": "Point", "coordinates": [ 30.95632904487135, 27.322334302024888 ] } },
{ "type": "Feature", "properties": { "fid": 1130, "geonamesid": null, "name": "Médélìéh", "aka": null, "position": null, "mf_name": null }, "geometry": { "type": "Point", "coordinates": [ 32.572641040294769, 25.2617597640787 ] } },
{ "type": "Feature", "properties": { "fid": 1139, "geonamesid": null, "name": "El Geràféh", "aka": null, "position": null, "mf_name": null }, "geometry": { "type": "Point", "coordinates": [ 31.521391620090167, 26.537889735390401 ] } },
{ "type": "Feature", "properties": { "fid": 1140, "geonamesid": 356859, "name": "Hesseh", "aka": null, "position": true, "mf_name": "Hesa I." }, "geometry": { "type": "Point", "coordinates": [ 32.878701580323551, 24.010705421817878 ] } },
{ "type": "Feature", "properties": { "fid": 1141, "geonamesid": 359989, "name": "Chéik Abàdéh", "aka": null, "position": true, "mf_name": "El Sheikh Ebada" }, "geometry": { "type": "Point", "coordinates": [ 30.875695239593124, 27.803970396902205 ] } },
{ "type": "Feature", "properties": { "fid": 1146, "geonamesid": 36, "name": "El Charq", "aka": null, "position": null, "mf_name": null }, "geometry": { "type": "Point", "coordinates": [ 31.800464777957622, 26.534136149650241 ] } },
{ "type": "Feature", "properties": { "fid": 1153, "geonamesid": null, "name": "Wàdì Sàleh el Din", "aka": null, "position": null, "mf_name": null }, "geometry": { "type": "Point", "coordinates": [ 31.417991136362904, 27.068295779992312 ] } },
{ "type": "Feature", "properties": { "fid": 1155, "geonamesid": null, "name": "Kafr Chàab", "aka": null, "position": null, "mf_name": null }, "geometry": { "type": "Point", "coordinates": [ 32.52974239666338, 25.33758818864672 ] } },
{ "type": "Feature", "properties": { "fid": 1164, "geonamesid": null, "name": "Nezleẗ", "aka": null, "position": null, "mf_name": null }, "geometry": { "type": "Point", "coordinates": [ 30.899961781164613, 27.664120808611361 ] } },
{ "type": "Feature", "properties": { "fid": 1166, "geonamesid": null, "name": "Nàhìet el Dari", "aka": null, "position": null, "mf_name": null }, "geometry": { "type": "Point", "coordinates": [ 32.063586860107577, 26.250088659245819 ] } },
{ "type": "Feature", "properties": { "fid": 1167, "geonamesid": 355655, "name": "Abehàdéh el Bahrì", "aka": null, "position": null, "mf_name": null }, "geometry": { "type": "Point", "coordinates": [ 30.742514744025669, 27.838152766950099 ] } },
{ "type": "Feature", "properties": { "fid": 1174, "geonamesid": 358418, "name": "El Denfiq", "aka": null, "position": true, "mf_name": "Danfiq" }, "geometry": { "type": "Point", "coordinates": [ 32.72387272621814, 25.865042122151433 ] } },
{ "type": "Feature", "properties": { "fid": 1177, "geonamesid": 361410, "name": "El Berecheh", "aka": null, "position": true, "mf_name": "El Barsha" }, "geometry": { "type": "Point", "coordinates": [ 30.89295855397005, 27.727829099732457 ] } },
{ "type": "Feature", "properties": { "fid": 1181, "geonamesid": null, "name": "Naga el Kìem", "aka": null, "position": null, "mf_name": null }, "geometry": { "type": "Point", "coordinates": [ 31.582895169249362, 26.647911241347813 ] } },
{ "type": "Feature", "properties": { "fid": 1184, "geonamesid": null, "name": "Nataféh", "aka": null, "position": null, "mf_name": null }, "geometry": { "type": "Point", "coordinates": [ 31.350177290510182, 27.117287919244692 ] } },
{ "type": "Feature", "properties": { "fid": 1191, "geonamesid": null, "name": "El Nemes", "aka": null, "position": null, "mf_name": null }, "geometry": { "type": "Point", "coordinates": [ 31.246619377870626, 27.086898044502203 ] } },
{ "type": "Feature", "properties": { "fid": 1194, "geonamesid": null, "name": "Kafr el Tin", "aka": null, "position": true, "mf_name": "Naga el Tina" }, "geometry": { "type": "Point", "coordinates": [ 32.752137937383246, 26.097328924729023 ] } },
{ "type": "Feature", "properties": { "fid": 1197, "geonamesid": 361391, "name": "El Biadiéh", "aka": null, "position": true, "mf_name": "El Baiadia" }, "geometry": { "type": "Point", "coordinates": [ 32.635440399738471, 25.665423393899829 ] } },
{ "type": "Feature", "properties": { "fid": 1198, "geonamesid": 351475, "name": "El Qanâân", "aka": null, "position": true, "mf_name": "Naga el Qanna" }, "geometry": { "type": "Point", "coordinates": [ 32.702232218417187, 25.176320136807277 ] } },
{ "type": "Feature", "properties": { "fid": 1200, "geonamesid": null, "name": "Adràs", "aka": null, "position": null, "mf_name": null }, "geometry": { "type": "Point", "coordinates": [ 30.912730921562879, 27.402504673950752 ] } },
{ "type": "Feature", "properties": { "fid": 1202, "geonamesid": null, "name": "El Koùm", "aka": null, "position": null, "mf_name": null }, "geometry": { "type": "Point", "coordinates": [ 31.634310159099122, 26.517738123590373 ] } },
{ "type": "Feature", "properties": { "fid": 1207, "geonamesid": null, "name": "Aràb Kélàbéh", "aka": null, "position": null, "mf_name": null }, "geometry": { "type": "Point", "coordinates": [ 31.269286304166439, 27.191074390823509 ] } },
{ "type": "Feature", "properties": { "fid": 1208, "geonamesid": null, "name": "Naga el 'Arab", "aka": null, "position": true, "mf_name": "Naga el Arab" }, "geometry": { "type": "Point", "coordinates": [ 31.573040770065919, 26.709193423721175 ] } },
{ "type": "Feature", "properties": { "fid": 1213, "geonamesid": null, "name": "Nàhìet Aboulkéir", "aka": null, "position": null, "mf_name": null }, "geometry": { "type": "Point", "coordinates": [ 32.671146602872582, 26.245524028698341 ] } },
{ "type": "Feature", "properties": { "fid": 1217, "geonamesid": null, "name": "Nezlet el Gatàiméh", "aka": null, "position": null, "mf_name": null }, "geometry": { "type": "Point", "coordinates": [ 30.876160177499081, 27.622756325622319 ] } },
{ "type": "Feature", "properties": { "fid": 1230, "geonamesid": 360027, "name": "El Chàmìéh", "aka": null, "position": true, "mf_name": "El Shamia" }, "geometry": { "type": "Point", "coordinates": [ 31.357678036043154, 27.063746585802814 ] } },
{ "type": "Feature", "properties": { "fid": 1232, "geonamesid": null, "name": "El Arab", "aka": null, "position": null, "mf_name": null }, "geometry": { "type": "Point", "coordinates": [ 31.558694516482575, 26.695723734816024 ] } },
{ "type": "Feature", "properties": { "fid": 1233, "geonamesid": 361445, "name": "Belàzéh", "aka": null, "position": true, "mf_name": "El Balaiza" }, "geometry": { "type": "Point", "coordinates": [ 31.246900065989173, 27.017418856505994 ] } },
{ "type": "Feature", "properties": { "fid": 1239, "geonamesid": null, "name": "Benàwéh", "aka": null, "position": true, "mf_name": "Benahu" }, "geometry": { "type": "Point", "coordinates": [ 31.519563425198768, 26.743894536932977 ] } },
{ "type": "Feature", "properties": { "fid": 1245, "geonamesid": null, "name": "El Qasr Otman Bék", "aka": null, "position": null, "mf_name": null }, "geometry": { "type": "Point", "coordinates": [ 32.730216030781513, 25.126199817043215 ] } },
{ "type": "Feature", "properties": { "fid": 1247, "geonamesid": 357724, "name": "El Zàirah", "aka": null, "position": true, "mf_name": "El Zira" }, "geometry": { "type": "Point", "coordinates": [ 31.269042479991647, 27.032114565799304 ] } },
{ "type": "Feature", "properties": { "fid": 1248, "geonamesid": null, "name": "El Nàmoucéh", "aka": null, "position": null, "mf_name": null }, "geometry": { "type": "Point", "coordinates": [ 32.556003158399811, 25.231540422776124 ] } },
{ "type": "Feature", "properties": { "fid": 1251, "geonamesid": null, "name": "Hamréh", "aka": null, "position": null, "mf_name": null }, "geometry": { "type": "Point", "coordinates": [ 31.255010139361165, 27.225669711124926 ] } },
{ "type": "Feature", "properties": { "fid": 1255, "geonamesid": 347237, "name": "Toùk", "aka": null, "position": true, "mf_name": "Tukh" }, "geometry": { "type": "Point", "coordinates": [ 30.816407725619825, 27.682024612316305 ] } },
{ "type": "Feature", "properties": { "fid": 1257, "geonamesid": null, "name": "Chéik Ahnred", "aka": null, "position": null, "mf_name": null }, "geometry": { "type": "Point", "coordinates": [ 32.923736346723032, 24.442101621541287 ] } },
{ "type": "Feature", "properties": { "fid": 1258, "geonamesid": 351633, "name": "Nâhîet el Haggar ", "aka": null, "position": true, "mf_name": "Naga el Maghara" }, "geometry": { "type": "Point", "coordinates": [ 32.888319950668972, 24.249469790569655 ] } },
{ "type": "Feature", "properties": { "fid": 1270, "geonamesid": null, "name": "Nezlet Chéik Ràgah", "aka": null, "position": null, "mf_name": null }, "geometry": { "type": "Point", "coordinates": [ 31.323156795099933, 27.050281573964959 ] } },
{ "type": "Feature", "properties": { "fid": 1271, "geonamesid": null, "name": "Deir Mahllet", "aka": "Mangoùrah", "position": null, "mf_name": null }, "geometry": { "type": "Point", "coordinates": [ 32.82995511286294, 24.958496773004118 ] } },
{ "type": "Feature", "properties": { "fid": 1272, "geonamesid": null, "name": "Cheik Aboulkeir", "aka": null, "position": null, "mf_name": null }, "geometry": { "type": "Point", "coordinates": [ 32.659189043051803, 26.231635400348452 ] } },
{ "type": "Feature", "properties": { "fid": 1277, "geonamesid": 361637, "name": "El Fàdréh", "aka": null, "position": true, "mf_name": "El Afadra" }, "geometry": { "type": "Point", "coordinates": [ 31.366376841544163, 27.039231770300091 ] } },
{ "type": "Feature", "properties": { "fid": 1280, "geonamesid": 359154, "name": "Bànoùb Zahr el Gemel", "aka": null, "position": null, "mf_name": null }, "geometry": { "type": "Point", "coordinates": [ 30.804634959963462, 27.55429128641731 ] } },
{ "type": "Feature", "properties": { "fid": 1285, "geonamesid": null, "name": "Nàhìet Belàd", "aka": null, "position": null, "mf_name": null }, "geometry": { "type": "Point", "coordinates": [ 32.610355790842618, 26.261621953164617 ] } },
{ "type": "Feature", "properties": { "fid": 1286, "geonamesid": null, "name": "El Azìéh", "aka": null, "position": null, "mf_name": null }, "geometry": { "type": "Point", "coordinates": [ 30.953217031173882, 27.239258782601425 ] } },
{ "type": "Feature", "properties": { "fid": 1289, "geonamesid": null, "name": "Bàqir", "aka": null, "position": null, "mf_name": null }, "geometry": { "type": "Point", "coordinates": [ 31.14095940564464, 27.270688298885577 ] } },
{ "type": "Feature", "properties": { "fid": 1291, "geonamesid": null, "name": "Kafr", "aka": null, "position": null, "mf_name": null }, "geometry": { "type": "Point", "coordinates": [ 32.627212536748587, 26.191174780048513 ] } },
{ "type": "Feature", "properties": { "fid": 1295, "geonamesid": null, "name": "Chéik Moûca", "aka": null, "position": true, "mf_name": "El Sheikh Musa el Kebir" }, "geometry": { "type": "Point", "coordinates": [ 32.940773360463446, 24.424629980844177 ] } },
{ "type": "Feature", "properties": { "fid": 1296, "geonamesid": null, "name": "Abdàllah", "aka": null, "position": null, "mf_name": null }, "geometry": { "type": "Point", "coordinates": [ 32.872257610462242, 24.815191968900759 ] } },
{ "type": "Feature", "properties": { "fid": 1297, "geonamesid": null, "name": "Koum el Ahinàr", "aka": null, "position": null, "mf_name": null }, "geometry": { "type": "Point", "coordinates": [ 32.21290602879133, 26.241005705063873 ] } },
{ "type": "Feature", "properties": { "fid": 1303, "geonamesid": null, "name": "Aùlàd Màmnéh", "aka": null, "position": true, "mf_name": "Aulad Mamin" }, "geometry": { "type": "Point", "coordinates": [ 31.786355416340221, 26.539513822135039 ] } },
{ "type": "Feature", "properties": { "fid": 1310, "geonamesid": null, "name": "El Qasa", "aka": null, "position": true, "mf_name": "Aqlit" }, "geometry": { "type": "Point", "coordinates": [ 32.902219629180344, 24.528060255313463 ] } },
{ "type": "Feature", "properties": { "fid": 1313, "geonamesid": null, "name": "Kaisiméh", "aka": null, "position": null, "mf_name": null }, "geometry": { "type": "Point", "coordinates": [ 32.021036296515341, 26.30938865211558 ] } },
{ "type": "Feature", "properties": { "fid": 1321, "geonamesid": 358281, "name": "El Déir", "aka": null, "position": null, "mf_name": null }, "geometry": { "type": "Point", "coordinates": [ 30.87777914030551, 27.496263661165944 ] } },
{ "type": "Feature", "properties": { "fid": 1322, "geonamesid": null, "name": "N. Ramkah", "aka": null, "position": true, "mf_name": "Nazlet Rameih" }, "geometry": { "type": "Point", "coordinates": [ 30.935140934032994, 27.331818504019211 ] } },
{ "type": "Feature", "properties": { "fid": 1334, "geonamesid": null, "name": "El Baranqah", "aka": null, "position": null, "mf_name": null }, "geometry": { "type": "Point", "coordinates": [ 31.932104131075377, 26.246243579143577 ] } },
{ "type": "Feature", "properties": { "fid": 1336, "geonamesid": null, "name": "Koùm Bàdréh", "aka": null, "position": true, "mf_name": "El Qawata & Aulad Badr" }, "geometry": { "type": "Point", "coordinates": [ 31.233409940052717, 27.225819379085241 ] } },
{ "type": "Feature", "properties": { "fid": 1343, "geonamesid": null, "name": "El Wafa", "aka": null, "position": true, "mf_name": "El Ghawasa" }, "geometry": { "type": "Point", "coordinates": [ 32.578551343031251, 26.177355061023331 ] } },
{ "type": "Feature", "properties": { "fid": 1348, "geonamesid": 359698, "name": "El Téitlìéh", "aka": null, "position": true, "mf_name": "El tatalia" }, "geometry": { "type": "Point", "coordinates": [ 30.832283686043112, 27.340656289072673 ] } },
{ "type": "Feature", "properties": { "fid": 1349, "geonamesid": null, "name": "Gehìnéh", "aka": null, "position": true, "mf_name": "Goheina" }, "geometry": { "type": "Point", "coordinates": [ 31.502117857059847, 26.66104867255649 ] } },
{ "type": "Feature", "properties": { "fid": 1353, "geonamesid": null, "name": "Chéìk el Safàhìeh", "aka": null, "position": null, "mf_name": null }, "geometry": { "type": "Point", "coordinates": [ 32.596128302173753, 26.207518693464639 ] } },
{ "type": "Feature", "properties": { "fid": 1355, "geonamesid": 353498, "name": "Kiman", "aka": null, "position": true, "mf_name": "Kiman el Matana" }, "geometry": { "type": "Point", "coordinates": [ 32.506991236891167, 25.443783070330749 ] } },
{ "type": "Feature", "properties": { "fid": 1357, "geonamesid": null, "name": "Kafr", "aka": null, "position": null, "mf_name": null }, "geometry": { "type": "Point", "coordinates": [ 31.151216658338729, 27.172460697246791 ] } },